,state,lat,lng,population,location,county
0,California,34.3219,-118.2247,9936690,"(34.3219, -118.2247)",Los Angeles County
1,Illinois,41.8401,-87.8168,5225367,"(41.8401, -87.8168)",Cook County
2,Texas,29.8578,-95.3938,4726177,"(29.8578, -95.3938)",Harris County
3,Arizona,33.349,-112.4915,4430871,"(33.349, -112.4915)",Maricopa County
4,California,33.0343,-116.7351,3289701,"(33.0343, -116.7351)",San Diego County
5,California,33.7031,-117.7609,3175227,"(33.7031, -117.7609)",Orange County
6,Florida,25.615,-80.5624,2688237,"(25.615, -80.5624)",Miami-Dade County
7,New York,40.6413,-73.9383,2679620,"(40.6413, -73.9383)",Kings County
8,Texas,32.7666,-96.7778,2604053,"(32.7666, -96.7778)",Dallas County
9,California,33.7437,-115.9938,2429487,"(33.7437, -115.9938)",Riverside County
10,New York,40.7035,-73.8196,2360826,"(40.7035, -73.8196)",Queens County
11,Nevada,36.2152,-115.0135,2265926,"(36.2152, -115.0135)",Clark County
12,Washington,47.4902,-121.8052,2254371,"(47.4902, -121.8052)",King County
13,California,34.8414,-116.1785,2180563,"(34.8414, -116.1785)",San Bernardino County
14,Texas,32.7719,-97.2911,2113854,"(32.7719, -97.2911)",Tarrant County
15,Texas,29.4489,-98.52,2014059,"(29.4489, -98.52)",Bexar County
16,Florida,26.1523,-80.4871,1940907,"(26.1523, -80.4871)",Broward County
17,California,37.2318,-121.6951,1916831,"(37.2318, -121.6951)",Santa Clara County
18,Michigan,42.2822,-83.283,1781641,"(42.2822, -83.283)",Wayne County
19,California,37.6469,-121.8887,1663823,"(37.6469, -121.8887)",Alameda County
20,New York,40.7793,-73.9668,1645867,"(40.7793, -73.9668)",New York County
21,Massachusetts,42.4856,-71.3918,1623109,"(42.4856, -71.3918)",Middlesex County
22,Pennsylvania,40.0077,-75.1339,1593208,"(40.0077, -75.1339)",Philadelphia County
23,California,38.4493,-121.3443,1579211,"(38.4493, -121.3443)",Sacramento County
24,New York,40.8681,-72.8454,1524486,"(40.8681, -72.8454)",Suffolk County
25,Florida,26.6476,-80.4655,1494805,"(26.6476, -80.4655)",Palm Beach County
26,Florida,27.9292,-82.3088,1468560,"(27.9292, -82.3088)",Hillsborough County
27,New York,40.8501,-73.8671,1443229,"(40.8501, -73.8671)",Bronx
28,Florida,28.5144,-81.3235,1427403,"(28.5144, -81.3235)",Orange County
29,New York,40.7326,-73.5862,1389160,"(40.7326, -73.5862)",Nassau County
30,Ohio,39.9695,-83.0093,1318149,"(39.9695, -83.0093)",Franklin County
31,Texas,30.3344,-97.782,1289054,"(30.3344, -97.782)",Travis County
32,Michigan,42.6604,-83.3858,1272264,"(42.6604, -83.3858)",Oakland County
33,Minnesota,45.0046,-93.477,1270787,"(45.0046, -93.477)",Hennepin County
34,Ohio,41.4243,-81.6586,1256620,"(41.4243, -81.6586)",Cuyahoga County
35,Pennsylvania,40.4688,-79.9812,1245310,"(40.4688, -79.9812)",Allegheny County
36,Utah,40.6673,-111.9236,1180643,"(40.6673, -111.9236)",Salt Lake County
37,California,37.9192,-121.9275,1162648,"(37.9192, -121.9275)",Contra Costa County
38,Virginia,38.8368,-77.277,1145354,"(38.8368, -77.277)",Fairfax County
39,North Carolina,35.7903,-78.6503,1132103,"(35.7903, -78.6503)",Wake County
40,North Carolina,35.2467,-80.8328,1115403,"(35.2467, -80.8328)",Mecklenburg County
41,Texas,33.188,-96.5724,1079153,"(33.188, -96.5724)",Collin County
42,Georgia,33.7902,-84.467,1061944,"(33.7902, -84.467)",Cobb County
43,Maryland,39.1363,-77.2042,1056910,"(39.1363, -77.2042)",Montgomery County
44,Arizona,32.0974,-111.7899,1042393,"(32.0974, -111.7899)",Pima County
45,Hawaii,21.5009,-158.106,1010100,"(21.5009, -158.106)",Honolulu County
46,California,36.7582,-119.6493,1008280,"(36.7582, -119.6493)",Fresno County
47,Missouri,38.6407,-90.4434,999703,"(38.6407, -90.4434)",Saint Louis County
48,New York,41.1626,-73.7561,997904,"(41.1626, -73.7561)",Westchester County
49,Florida,30.3313,-81.6715,995708,"(30.3313, -81.6715)",Duval County
50,Connecticut,41.8185,-72.572,977165,"(41.8185, -72.572)",Hartford County
51,Indiana,39.7817,-86.1385,971737,"(39.7817, -86.1385)",Marion County
52,Florida,27.9198,-82.7255,959918,"(27.9198, -82.7255)",Pinellas County
53,Georgia,33.9617,-84.0236,957977,"(33.9617, -84.0236)",Gwinnett County
54,Maryland,38.8295,-76.8473,957189,"(38.8295, -76.8473)",Prince George's County
55,New Jersey,40.9597,-74.0742,953243,"(40.9597, -74.0742)",Bergen County
56,New York,42.7639,-78.7323,951232,"(42.7639, -78.7323)",Erie County
57,Wisconsin,43.0072,-87.9669,933063,"(43.0072, -87.9669)",Milwaukee County
58,Illinois,41.852,-88.0856,930559,"(41.852, -88.0856)",DuPage County
59,Tennessee,35.1842,-89.894,926440,"(35.1842, -89.894)",Shelby County
60,Washington,47.0239,-122.104,918993,"(47.0239, -122.104)",Pierce County
61,Texas,33.2055,-97.1168,914870,"(33.2055, -97.1168)",Denton County
62,California,35.3426,-118.7301,906883,"(35.3426, -118.7301)",Kern County
63,Michigan,42.6957,-82.9323,878453,"(42.6957, -82.9323)",Macomb County
64,Texas,26.3969,-98.1812,873167,"(26.3969, -98.1812)",Hidalgo County
65,Texas,31.7686,-106.2348,863832,"(31.7686, -106.2348)",El Paso County
66,New Jersey,40.4391,-74.4117,860147,"(40.4391, -74.4117)",Middlesex County
67,Massachusetts,42.3514,-71.9077,858898,"(42.3514, -71.9077)",Worcester County
68,Pennsylvania,40.2108,-75.3673,856399,"(40.2108, -75.3673)",Montgomery County
69,New Jersey,40.788,-74.2481,853374,"(40.788, -74.2481)",Essex County
70,California,37.7556,-122.445,851036,"(37.7556, -122.445)",San Francisco County
71,Maryland,39.4627,-76.6393,850737,"(39.4627, -76.6393)",Baltimore County
72,California,34.4561,-119.0836,842009,"(34.4561, -119.0836)",Ventura County
73,Texas,29.5275,-95.7709,832607,"(29.5275, -95.7709)",Fort Bend County
74,Washington,48.0474,-121.6972,828337,"(48.0474, -121.6972)",Snohomish County
75,Ohio,39.1955,-84.5428,827671,"(39.1955, -84.5428)",Hamilton County
76,Oregon,45.5468,-122.4149,808098,"(45.5468, -122.4149)",Multnomah County
77,Massachusetts,42.6732,-70.9524,806103,"(42.6732, -70.9524)",Essex County
78,Oklahoma,35.5515,-97.4072,795822,"(35.5515, -97.4072)",Oklahoma County
79,Massachusetts,42.3328,-71.0735,785443,"(42.3328, -71.0735)",Suffolk County
80,California,37.9348,-121.2714,779445,"(37.9348, -121.2714)",San Joaquin County
81,Kentucky,38.1872,-85.6591,779232,"(38.1872, -85.6591)",Jefferson County
82,Florida,26.578,-81.8332,772902,"(26.578, -81.8332)",Lee County
83,Georgia,33.9415,-84.5767,765813,"(33.9415, -84.5767)",Cobb County
84,Georgia,33.7716,-84.2264,761209,"(33.7716, -84.2264)",DeKalb County
85,New York,43.1464,-77.6961,756406,"(43.1464, -77.6961)",Monroe County
86,California,37.4228,-122.3291,754250,"(37.4228, -122.3291)",San Mateo County
87,Florida,27.9489,-81.6976,736229,"(27.9489, -81.6976)",Polk County
88,Colorado,38.8321,-104.5254,730323,"(38.8321, -104.5254)",El Paso County
89,Massachusetts,42.1603,-71.2118,722112,"(42.1603, -71.2118)",Norfolk County
90,Missouri,39.0085,-94.3461,715526,"(39.0085, -94.3461)",Jackson County
91,Illinois,42.3233,-88.0037,713159,"(42.3233, -88.0037)",Lake County
92,New Jersey,40.7408,-74.0751,712029,"(40.7408, -74.0751)",Hudson County
93,Colorado,39.762,-104.8758,710800,"(39.762, -104.8758)",Adams County
94,Tennessee,36.1695,-86.7848,709786,"(36.1695, -86.7848)",Davidson County
95,Illinois,41.445,-87.9786,696774,"(41.445, -87.9786)",Will County
96,New Mexico,35.0514,-106.6701,674692,"(35.0514, -106.6701)",Bernalillo County
97,Alabama,33.5543,-86.8964,672265,"(33.5543, -86.8964)",Jefferson County
98,District of Columbia,38.9047,-77.0163,670587,"(38.9047, -77.0163)",
99,Oklahoma,36.1211,-95.9415,668923,"(36.1211, -95.9415)",Tulsa County
100,Utah,40.1199,-111.6702,666021,"(40.1199, -111.6702)",Utah County
101,Rhode Island,41.8721,-71.58,657984,"(41.8721, -71.58)",Providence County
102,Michigan,43.0322,-85.5493,657321,"(43.0322, -85.5493)",Kent County
103,Colorado,39.6498,-104.3393,654453,"(39.6498, -104.3393)",Adams County
104,Pennsylvania,40.337,-75.1069,645163,"(40.337, -75.1069)",Bucks County
105,New Jersey,40.2601,-74.2216,643064,"(40.2601, -74.2216)",Monmouth County
106,New Jersey,39.8856,-74.2814,638691,"(39.8856, -74.2814)",Ocean County
107,Texas,30.3002,-95.503,629989,"(30.3002, -95.503)",Montgomery County
108,Connecticut,41.3225,-73.4475,620666,"(41.3225, -73.4475)",Fairfield County
109,Texas,30.6475,-97.6004,617396,"(30.6475, -97.6004)",Williamson County
110,Kansas,38.8838,-94.8223,610742,"(38.8838, -94.8223)",Johnson County
111,Florida,28.2937,-80.7323,610723,"(28.2937, -80.7323)",Brevard County
112,Oregon,45.56,-123.0984,599541,"(45.56, -123.0984)",Washington County
113,Maryland,39.0065,-76.6051,588109,"(39.0065, -76.6051)",Anne Arundel County
114,Maryland,39.3051,-76.6144,584548,"(39.3051, -76.6144)",City of Baltimore
115,Nebraska,41.2953,-96.1543,582638,"(41.2953, -96.1543)",Douglas County
116,Colorado,39.5864,-105.2505,580519,"(39.5864, -105.2505)",Jefferson County
117,Massachusetts,41.7972,-71.1144,576699,"(41.7972, -71.1144)",Bristol County
118,Pennsylvania,39.9167,-75.3991,575312,"(39.9167, -75.3991)",Delaware County
119,New Jersey,40.6601,-74.31,572079,"(40.6601, -74.31)",Union County
120,Connecticut,41.3613,-72.8445,571298,"(41.3613, -72.8445)",New Haven County
121,Delaware,39.5768,-75.6527,570567,"(39.5768, -75.6527)",New Castle County
122,Florida,28.3092,-82.392,569211,"(28.3092, -82.392)",Pasco County
123,Wisconsin,43.0673,-89.4181,559891,"(43.0673, -89.4181)",Dane County
124,Florida,29.0584,-81.1819,558520,"(29.0584, -81.1819)",Volusia County
125,Pennsylvania,40.0424,-76.2477,553202,"(40.0424, -76.2477)",Lancaster County
126,California,37.5591,-120.9977,552063,"(37.5591, -120.9977)",Stanislaus County
127,Minnesota,45.0171,-93.0996,547202,"(45.0171, -93.0996)",Ramsey County
128,North Carolina,36.0795,-79.7889,539557,"(36.0795, -79.7889)",Guilford County
129,Ohio,41.126,-81.5322,539361,"(41.126, -81.5322)",Summit County
130,Washington,47.6207,-117.404,538711,"(47.6207, -117.404)",Spokane County
131,Pennsylvania,39.9731,-75.7484,536474,"(39.9731, -75.7484)",Chester County
132,Ohio,39.7547,-84.2907,536121,"(39.7547, -84.2907)",Montgomery County
133,Massachusetts,41.9511,-70.8115,529548,"(41.9511, -70.8115)",Plymouth County
134,South Carolina,34.8941,-82.3706,528251,"(34.8941, -82.3706)",Greenville County
135,Kansas,37.6848,-97.461,522700,"(37.6848, -97.461)",Sedgwick County
136,New Jersey,39.8035,-74.9597,522581,"(39.8035, -74.9597)",Camden County
137,Colorado,39.8736,-104.3379,520149,"(39.8736, -104.3379)",Adams County
138,New Jersey,41.0343,-74.3009,519986,"(41.0343, -74.3009)",Passaic County
139,Illinois,41.9388,-88.4286,517254,"(41.9388, -88.4286)",Kane County
140,New Jersey,40.862,-74.5445,508816,"(40.862, -74.5445)",Morris County
141,Washington,45.7792,-122.4825,504091,"(45.7792, -122.4825)",Clark County
142,Indiana,41.4167,-87.3821,497682,"(41.4167, -87.3821)",Lake County
143,Idaho,43.4511,-116.2412,497494,"(43.4511, -116.2412)",Ada County
144,Iowa,41.6854,-93.5734,493378,"(41.6854, -93.5734)",Polk County
145,New York,40.5807,-74.1531,492925,"(40.5807, -74.1531)",Richmond County
146,California,38.529,-122.8882,488436,"(38.529, -122.8882)",Sonoma County
147,Nevada,40.6655,-119.6643,486674,"(40.6655, -119.6643)",Lassen County
148,Tennessee,35.9932,-83.9371,481406,"(35.9932, -83.9371)",Knox County
149,Virginia,38.7029,-77.4809,481114,"(38.7029, -77.4809)",City of Manassas
150,California,36.2202,-118.8005,473446,"(36.2202, -118.8005)",Tulare County
151,New York,43.0058,-76.1946,472637,"(43.0058, -76.1946)",Onondaga County
152,Florida,28.717,-81.2363,471321,"(28.717, -81.2363)",Seminole County
153,Massachusetts,42.1351,-72.6316,464575,"(42.1351, -72.6316)",Hampden County
154,New Jersey,39.8777,-74.6681,461853,"(39.8777, -74.6681)",Burlington County
155,Virginia,36.7335,-76.0435,457900,"(36.7335, -76.0435)",City of Virginia Beach
156,Pennsylvania,39.92,-76.7265,457051,"(39.92, -76.7265)",York County
157,Louisiana,30.5383,-91.0956,454369,"(30.5383, -91.0956)",East Baton Rouge Parish
158,Connecticut,41.5231,-73.086,451887,"(41.5231, -73.086)",New Haven County
159,California,38.27,-121.9328,450995,"(38.27, -121.9328)",Solano County
160,California,34.6729,-120.0169,445213,"(34.6729, -120.0169)",Santa Barbara County
161,Florida,27.1845,-82.3315,439392,"(27.1845, -82.3315)",Sarasota County
162,Minnesota,44.6719,-93.0654,439179,"(44.6719, -93.0654)",Dakota County
163,California,36.2171,-121.2388,437609,"(36.2171, -121.2388)",Monterey County
164,Louisiana,29.7882,-90.1276,436171,"(29.7882, -90.1276)",Jefferson Parish
165,Arizona,32.9044,-111.3448,433338,"(32.9044, -111.3448)",Pinal County
166,Ohio,41.6197,-83.6589,430014,"(41.6197, -83.6589)",Lucas County
167,Pennsylvania,40.4163,-75.926,428483,"(40.4163, -75.926)",Berks County
168,New Hampshire,42.9153,-71.7161,422733,"(42.9153, -71.7161)",Hillsborough County
169,Texas,26.1332,-97.5186,421854,"(26.1332, -97.5186)",Cameron County
170,Oregon,45.188,-122.2208,420925,"(45.188, -122.2208)",Clackamas County
171,Virginia,39.0907,-77.6357,420773,"(39.0907, -77.6357)",Loudoun County
172,South Carolina,34.0218,-80.9031,416161,"(34.0218, -80.9031)",Richland County
173,Alabama,30.7877,-88.2058,413878,"(30.7877, -88.2058)",Mobile County
174,South Carolina,32.8348,-79.953,409840,"(32.8348, -79.953)",Charleston County
175,Wisconsin,43.0182,-88.3045,407290,"(43.0182, -88.3045)",Waukesha County
176,California,39.0634,-120.7177,406608,"(39.0634, -120.7177)",Placer County
177,Missouri,38.782,-90.6749,406262,"(38.782, -90.6749)",Saint Charles County
178,Michigan,43.0217,-83.7067,405280,"(43.0217, -83.7067)",Genesee County
179,Florida,27.4719,-82.3153,405069,"(27.4719, -82.3153)",Sarasota County
180,New York,41.4022,-74.3056,401237,"(41.4022, -74.3056)",Orange County
181,Arkansas,34.77,-92.312,398322,"(34.77, -92.312)",Pulaski County
182,Florida,28.0626,-81.1495,393745,"(28.0626, -81.1495)",Osceola County
183,Alabama,34.7631,-86.5502,389781,"(34.7631, -86.5502)",Madison County
184,Ohio,39.4386,-84.5756,388327,"(39.4386, -84.5756)",Butler County
185,Florida,28.7615,-81.7113,386829,"(28.7615, -81.7113)",Lake County
186,Indiana,41.0909,-85.0666,385456,"(41.0909, -85.0666)",Allen County
187,North Carolina,36.1306,-80.2563,383739,"(36.1306, -80.2563)",Forsyth County
188,New Jersey,40.2834,-74.7018,383732,"(40.2834, -74.7018)",Mercer County
189,Oregon,43.9387,-122.848,382218,"(43.9387, -122.848)",Lane County
190,Louisiana,30.0687,-89.9289,380408,"(30.0687, -89.9289)",Saint Bernard Parish
191,Florida,26.1108,-81.3474,380221,"(26.1108, -81.3474)",Collier County
192,Florida,29.2102,-82.0567,378225,"(29.2102, -82.0567)",Marion County
193,Texas,29.1898,-95.4521,374600,"(29.1898, -95.4521)",Brazoria County
194,Ohio,40.8139,-81.3656,374199,"(40.8139, -81.3656)",Stark County
195,Pennsylvania,40.6127,-75.5923,374110,"(40.6127, -75.5923)",Lehigh County
196,Texas,31.0373,-97.4788,372821,"(31.0373, -97.4788)",Bell County
197,Michigan,42.2532,-83.8388,370231,"(42.2532, -83.8388)",Washtenaw County
198,Tennessee,35.1808,-85.1648,367193,"(35.1808, -85.1648)",Hamilton County
199,Virginia,37.3785,-77.587,366019,"(37.3785, -77.587)",Chesterfield County
200,Minnesota,45.2733,-93.2465,363985,"(45.2733, -93.2465)",Anoka County
201,Utah,40.99,-112.1115,363032,"(40.99, -112.1115)",Davis County
202,Colorado,39.3298,-104.9293,360206,"(39.3298, -104.9293)",Douglas County
203,Colorado,40.6664,-105.4611,359363,"(40.6664, -105.4611)",Larimer County
204,South Carolina,33.9214,-78.9967,356578,"(33.9214, -78.9967)",Horry County
205,Pennsylvania,40.3109,-79.4668,354414,"(40.3109, -79.4668)",Westmoreland County
206,Texas,27.7254,-97.6134,353245,"(27.7254, -97.6134)",Nueces County
207,Texas,29.3944,-94.9642,350801,"(29.3944, -94.9642)",Galveston County
208,Indiana,40.0725,-86.052,349527,"(40.0725, -86.052)",Hamilton County
209,Oregon,44.9033,-122.5847,345815,"(44.9033, -122.5847)",Linn County
210,New Jersey,40.5635,-74.6163,344978,"(40.5635, -74.6163)",Somerset County
211,Tennessee,35.8427,-86.4167,343727,"(35.8427, -86.4167)",Rutherford County
212,New York,41.1525,-74.0242,337326,"(41.1525, -74.0242)",Rockland County
213,North Carolina,35.0487,-78.8277,335207,"(35.0487, -78.8277)",Cumberland County
214,Florida,27.3773,-80.4721,334682,"(27.3773, -80.4721)",Saint Lucie County
215,Virginia,37.538,-77.4059,333120,"(37.538, -77.4059)",Henrico County
216,Maryland,39.2507,-76.9312,332011,"(39.2507, -76.9312)",Howard County
217,Colorado,40.5548,-104.3925,331466,"(40.5548, -104.3925)",Weld County
218,South Carolina,34.9309,-81.9908,330119,"(34.9309, -81.9908)",Spartanburg County
219,Colorado,40.0925,-105.3577,328658,"(40.0925, -105.3577)",Boulder County
220,Connecticut,41.2428,-73.2314,326381,"(41.2428, -73.2314)",Fairfield County
221,Pennsylvania,41.177,-75.9892,325396,"(41.177, -75.9892)",Luzerne County
222,North Carolina,36.036,-78.8766,325101,"(36.036, -78.8766)",Durham County
223,Nebraska,40.7842,-96.6878,322063,"(40.7842, -96.6878)",Lancaster County
224,Florida,30.669,-87.363,321296,"(30.669, -87.363)",Escambia County
225,Kentucky,38.0423,-84.4587,321276,"(38.0423, -84.4587)",Fayette County
226,New Hampshire,42.9875,-71.1254,315169,"(42.9875, -71.1254)",Rockingham County
227,New York,42.6002,-73.9736,315041,"(42.6002, -73.9736)",Albany County
228,Pennsylvania,40.7542,-75.3076,314299,"(40.7542, -75.3076)",Northampton County
229,Ohio,41.2956,-82.151,313101,"(41.2956, -82.151)",Lorain County
230,Texas,33.6102,-101.8205,311509,"(33.6102, -101.8205)",Lubbock County
231,Illinois,42.3244,-88.4523,311133,"(42.3244, -88.4523)",McHenry County
232,Maine,43.8466,-70.3996,303357,"(43.8466, -70.3996)",Cumberland County
233,New Jersey,39.7173,-75.1414,302621,"(39.7173, -75.1414)",Gloucester County
234,Missouri,37.2581,-93.342,299188,"(37.2581, -93.342)",Greene County
235,Missouri,38.6358,-90.2451,298018,"(38.6358, -90.2451)",City of Saint Louis
236,New York,41.7652,-73.7429,296467,"(41.7652, -73.7429)",Dutchess County
237,Georgia,33.542,-84.3576,296312,"(33.542, -84.3576)",Clayton County
238,Georgia,32.0043,-81.1329,296266,"(32.0043, -81.1329)",Chatham County
239,Michigan,42.9599,-85.996,296183,"(42.9599, -85.996)",Ottawa County
240,South Carolina,33.9023,-81.2722,295934,"(33.9023, -81.2722)",Lexington County
241,Oklahoma,35.2031,-97.3265,295060,"(35.2031, -97.3265)",Cleveland County
242,Washington,46.9256,-122.8333,294272,"(46.9256, -122.8333)",Thurston County
243,Florida,30.458,-84.2779,294128,"(30.458, -84.2779)",Leon County
244,Alaska,61.1498,-149.1082,290674,"(61.1498, -149.1082)",Anchorage Municipality
245,Arkansas,36.3387,-94.2561,286528,"(36.3387, -94.2561)",Benton County
246,Pennsylvania,40.4155,-76.7794,286108,"(40.4155, -76.7794)",Dauphin County
247,Illinois,42.3363,-89.1609,284591,"(42.3363, -89.1609)",Winnebago County
248,South Carolina,34.9748,-81.1845,282987,"(34.9748, -81.1845)",York County
249,Michigan,42.5971,-84.3735,282540,"(42.5971, -84.3735)",Ingham County
250,California,37.1919,-120.7177,282290,"(37.1919, -120.7177)",Merced County
251,California,35.3871,-120.4044,281712,"(35.3871, -120.4044)",San Luis Obispo County
252,Connecticut,41.5023,-72.1,280293,"(41.5023, -72.1)",New London County
253,Florida,29.6747,-82.3577,279729,"(29.6747, -82.3577)",Alachua County
254,Florida,29.9016,-81.4407,278722,"(29.9016, -81.4407)",Saint Johns County
255,Washington,47.6127,-122.6762,275411,"(47.6127, -122.6762)",Kitsap County
256,New Jersey,39.4778,-74.661,274339,"(39.4778, -74.661)",Atlantic County
257,Maryland,39.4722,-77.398,273829,"(39.4722, -77.398)",Frederick County
258,Indiana,41.6167,-86.2899,272388,"(41.6167, -86.2899)",Saint Joseph County
259,Pennsylvania,41.9925,-80.0327,270495,"(41.9925, -80.0327)",Erie County
260,North Carolina,35.6112,-82.5301,269449,"(35.6112, -82.5301)",Buncombe County
261,Minnesota,45.0388,-92.8838,268651,"(45.0388, -92.8838)",Washington County
262,California,37.0562,-122.0018,268571,"(37.0562, -122.0018)",Santa Cruz County
263,Georgia,34.244,-84.4762,268567,"(34.244, -84.4762)",Cherokee County
264,Wisconsin,44.4525,-88.0037,268393,"(44.4525, -88.0037)",Brown County
265,Texas,27.7611,-99.3315,267282,"(27.7611, -99.3315)",Webb County
266,Louisiana,30.4103,-89.9584,266168,"(30.4103, -89.9584)",Saint Tammany Parish
267,Illinois,38.8297,-89.9049,265512,"(38.8297, -89.9049)",Madison County
268,Utah,41.2698,-111.9134,262960,"(41.2698, -111.9134)",Weber County
269,Michigan,42.2455,-85.5312,261426,"(42.2455, -85.5312)",Kalamazoo County
270,Pennsylvania,40.1636,-77.2655,261269,"(40.1636, -77.2655)",Cumberland County
271,Texas,31.5524,-97.2018,261090,"(31.5524, -97.2018)",McLennan County
272,Maryland,39.5611,-76.3171,261059,"(39.5611, -76.3171)",Harford County
273,California,38.0734,-122.7234,260485,"(38.0734, -122.7234)",Marin County
274,Illinois,38.4703,-89.9284,256791,"(38.4703, -89.9284)",Saint Clair County
275,Washington,46.4571,-120.7385,256143,"(46.4571, -120.7385)",Yakima County
276,Texas,29.8841,-94.1629,254942,"(29.8841, -94.1629)",Jefferson County
277,Georgia,34.2255,-84.1251,253225,"(34.2255, -84.1251)",Forsyth County
278,Missouri,39.3105,-94.4209,253085,"(39.3105, -94.4209)",Clay County
279,Virginia,36.6778,-76.3023,249377,"(36.6778, -76.3023)",City of Chesapeake
280,Tennessee,35.8938,-86.8986,248897,"(35.8938, -86.8986)",Williamson County
281,Arkansas,35.9791,-94.2156,247331,"(35.9791, -94.2156)",Washington County
282,Texas,30.0579,-98.0312,245351,"(30.0579, -98.0312)",Hays County
283,Ohio,39.4277,-84.1668,243189,"(39.4277, -84.1668)",Warren County
284,Louisiana,30.2068,-92.0639,243175,"(30.2068, -92.0639)",Lafayette Parish
285,Georgia,33.453,-84.1542,240853,"(33.453, -84.1542)",Henry County
286,Delaware,38.6606,-75.39,240668,"(38.6606, -75.39)",Sussex County
287,North Carolina,34.9884,-80.5307,240109,"(34.9884, -80.5307)",Union County
288,Arizona,34.5998,-112.5537,237830,"(34.5998, -112.5537)",Yavapai County
289,Virginia,36.8947,-76.257,236973,"(36.8947, -76.257)",City of Norfolk
290,New York,43.1074,-73.8639,236328,"(43.1074, -73.8639)",Saratoga County
291,Louisiana,32.5806,-93.8823,236259,"(32.5806, -93.8823)",Caddo Parish
292,Virginia,38.8786,-77.1011,235845,"(38.8786, -77.1011)",Arlington County
293,Idaho,43.6251,-116.7093,235006,"(43.6251, -116.7093)",Canyon County
294,Texas,32.375,-95.2692,234667,"(32.375, -95.2692)",Smith County
295,Texas,30.6608,-96.3024,234548,"(30.6608, -96.3024)",Brazos County
296,Alabama,30.7277,-87.7226,233420,"(30.7277, -87.7226)",Baldwin County
297,Ohio,41.6963,-81.2373,232236,"(41.6963, -81.2373)",Lake County
298,Alabama,33.2896,-87.5251,231558,"(33.2896, -87.5251)",Tuscaloosa County
299,South Carolina,33.1973,-79.9522,231419,"(33.1973, -79.9522)",Berkeley County
300,New York,43.2418,-75.4358,231055,"(43.2418, -75.4358)",Oneida County
301,Massachusetts,41.7244,-70.2903,229436,"(41.7244, -70.2903)",Barnstable County
302,Iowa,42.079,-91.599,229308,"(42.079, -91.599)",Linn County
303,North Carolina,35.2944,-81.1803,228972,"(35.2944, -81.1803)",Gaston County
304,North Carolina,34.2329,-77.8848,228134,"(34.2329, -77.8848)",New Hanover County
305,Alabama,32.2203,-86.2076,228132,"(32.2203, -86.2076)",Montgomery County
306,Ohio,41.0146,-80.7763,227979,"(41.0146, -80.7763)",Mahoning County
307,Virginia,37.5294,-77.4756,227171,"(37.5294, -77.4756)",City of Richmond
308,Missouri,38.261,-90.5377,226984,"(38.261, -90.5377)",Jefferson County
309,Mississippi,32.2667,-90.4429,226541,"(32.2667, -90.4429)",Hinds County
310,Washington,48.8259,-121.7199,226523,"(48.8259, -121.7199)",
311,North Carolina,35.3868,-80.5519,226396,"(35.3868, -80.5519)",Cabarrus County
312,Alabama,33.2643,-86.6607,223916,"(33.2643, -86.6607)",Shelby County
313,Oregon,42.4322,-122.7285,222604,"(42.4322, -122.7285)",Jackson County
314,Tennessee,36.4969,-87.3828,222305,"(36.4969, -87.3828)",Montgomery County
315,New Mexico,32.3526,-106.8328,219870,"(32.3526, -106.8328)",Dona Ana County
316,Florida,29.9831,-81.8579,219650,"(29.9831, -81.8579)",Clay County
317,North Carolina,35.5178,-78.3657,219042,"(35.5178, -78.3657)",Johnston County
318,California,38.6866,-121.9011,217141,"(38.6866, -121.9011)",Yolo County
319,Ohio,40.2784,-83.0049,216074,"(40.2784, -83.0049)",Delaware County
320,Pennsylvania,41.4367,-75.6092,215672,"(41.4367, -75.6092)",Lackawanna County
321,Arizona,35.7041,-113.7579,214229,"(35.7041, -113.7579)",Mohave County
322,California,39.6669,-121.6007,213605,"(39.6669, -121.6007)",Butte County
323,Maine,43.4782,-70.7144,212691,"(43.4782, -70.7144)",York County
324,New York,43.2001,-78.7452,212230,"(43.2001, -78.7452)",Niagara County
325,Florida,30.6913,-86.5917,212021,"(30.6913, -86.5917)",Okaloosa County
326,Louisiana,30.2293,-93.3581,210770,"(30.2293, -93.3581)",Calcasieu Parish
327,Pennsylvania,40.1894,-80.2483,209631,"(40.1894, -80.2483)",Washington County
328,Ohio,39.0476,-84.1517,208851,"(39.0476, -84.1517)",Clermont County
329,Mississippi,30.5122,-89.116,208748,"(30.5122, -89.116)",Harrison County
330,Washington,46.2398,-119.5112,207560,"(46.2398, -119.5112)",Benton County
331,Indiana,41.5974,-85.8587,206841,"(41.5974, -85.8587)",Elkhart County
332,Illinois,40.1401,-88.1992,206525,"(40.1401, -88.1992)",Champaign County
333,Georgia,33.3596,-82.0736,206153,"(33.3596, -82.0736)",Richmond County
334,Georgia,34.3169,-83.8197,204953,"(34.3169, -83.8197)",Hall County
335,South Carolina,34.5193,-82.6378,204592,"(34.5193, -82.6378)",Anderson County
336,Georgia,32.51,-84.8771,204572,"(32.51, -84.8771)",Muscogee County
337,Arizona,32.7695,-113.9056,204374,"(32.7695, -113.9056)",Yuma County
338,North Carolina,34.7322,-77.4322,203686,"(34.7322, -77.4322)",Onslow County
339,Hawaii,19.5984,-155.5183,202163,"(19.5984, -155.5183)",Hawaii County
340,Ohio,41.317,-80.7613,201749,"(41.317, -80.7613)",Trumbull County
341,Minnesota,47.6031,-92.4707,200122,"(47.6031, -92.4707)",Saint Louis County
342,Oregon,43.9151,-121.2281,199352,"(43.9151, -121.2281)",Deschutes County
343,New York,42.1602,-75.8196,198365,"(42.1602, -75.8196)",Broome County
344,South Dakota,43.6742,-96.7915,197742,"(43.6742, -96.7915)",Minnehaha County
345,Wisconsin,42.7475,-88.0613,197068,"(42.7475, -88.0613)",Racine County
346,Tennessee,36.469,-86.4606,196845,"(36.469, -86.4606)",Sumner County
347,Florida,28.5537,-82.424,196621,"(28.5537, -82.424)",Hernando County
348,Illinois,39.7582,-89.6589,196122,"(39.7582, -89.6589)",Sangamon County
349,Texas,32.3484,-96.7947,195509,"(32.3484, -96.7947)",Ellis County
350,Pennsylvania,40.912,-79.9133,194562,"(40.912, -79.9133)",Butler County
351,Michigan,42.6029,-83.9115,194302,"(42.6029, -83.9115)",Livingston County
352,California,38.7787,-120.5247,191713,"(38.7787, -120.5247)",El Dorado County
353,Nebraska,41.1129,-96.112,191272,"(41.1129, -96.112)",Sarpy County
354,Wisconsin,44.4161,-88.4649,190611,"(44.4161, -88.4649)",Outagamie County
355,Florida,26.9058,-81.9114,189900,"(26.9058, -81.9114)",Charlotte County
356,Michigan,43.335,-84.0532,189821,"(43.335, -84.0532)",Saginaw County
357,South Carolina,32.3856,-80.7306,189071,"(32.3856, -80.7306)",Beaufort County
358,Florida,30.7004,-87.0219,188994,"(30.7004, -87.0219)",Santa Rosa County
359,North Carolina,35.8071,-80.8734,187839,"(35.8071, -80.8734)",Iredell County
360,Indiana,40.3886,-86.8941,186955,"(40.3886, -86.8941)",Tippecanoe County
361,North Dakota,46.933,-97.248,186328,"(46.933, -97.248)",Cass County
362,Mississippi,34.8753,-89.9912,186214,"(34.8753, -89.9912)",De Soto County
363,Virginia,37.1049,-76.5181,185118,"(37.1049, -76.5181)",York County
364,Missouri,38.9906,-92.3097,184043,"(38.9906, -92.3097)",Boone County
365,Utah,37.2804,-113.5048,183297,"(37.2804, -113.5048)",Washington County
366,Texas,32.379,-97.3665,182690,"(32.379, -97.3665)",Johnson County
367,Delaware,39.086,-75.5686,182400,"(39.086, -75.5686)",Kent County
368,Ohio,41.1176,-81.8997,182347,"(41.1176, -81.8997)",Medina County
369,New York,41.8881,-74.2585,182153,"(41.8881, -74.2585)",Ulster County
370,California,40.7637,-122.0405,181852,"(40.7637, -122.0405)",Shasta County
371,Illinois,40.788,-89.76,181186,"(40.788, -89.76)",Peoria County
372,Florida,30.2652,-85.6203,181055,"(30.2652, -85.6203)",Bay County
373,Indiana,38.0249,-87.5859,179900,"(38.0249, -87.5859)",Vanderburgh County
374,West Virginia,38.3365,-81.5281,179895,"(38.3365, -81.5281)",Kanawha County
375,California,33.0395,-115.3654,179578,"(33.0395, -115.3654)",Imperial County
376,Ohio,40.0916,-82.4831,178844,"(40.0916, -82.4831)",Licking County
377,Kansas,39.0415,-95.7565,178625,"(39.0415, -95.7565)",Shawnee County
378,Michigan,43.2912,-86.152,175947,"(43.2912, -86.152)",Muskegon County
379,Indiana,39.7695,-86.51,175639,"(39.7695, -86.51)",Hendricks County
380,Connecticut,41.45,-72.5073,175244,"(41.45, -72.5073)",Middlesex County
381,Alabama,32.6011,-85.3555,175126,"(32.6011, -85.3555)",Lee County
382,Iowa,41.6371,-90.6232,174315,"(41.6371, -90.6232)",Scott County
383,Texas,29.5831,-97.9486,173828,"(29.5831, -97.9486)",Guadalupe County
384,Idaho,47.6744,-116.7018,173396,"(47.6744, -116.7018)",Kootenai County
385,Indiana,41.4603,-87.0672,173355,"(41.4603, -87.0672)",Porter County
386,Maryland,39.5629,-77.0225,173225,"(39.5629, -77.0225)",Carroll County
387,North Carolina,36.0437,-79.3995,171779,"(36.0437, -79.3995)",Alamance County
388,Illinois,40.4909,-88.8473,171284,"(40.4909, -88.8473)",McLean County
389,Wisconsin,44.0689,-88.6447,171197,"(44.0689, -88.6447)",Winnebago County
390,North Carolina,35.5933,-77.3745,171196,"(35.5933, -77.3745)",Pitt County
391,Rhode Island,41.6722,-71.5932,170168,"(41.6722, -71.5932)",Kent County
392,Georgia,33.9206,-84.8673,169898,"(33.9206, -84.8673)",Paulding County
393,South Carolina,33.5443,-81.6347,169865,"(33.5443, -81.6347)",Aiken County
394,North Carolina,35.7933,-80.2128,169498,"(35.7933, -80.2128)",Davidson County
395,Texas,31.8691,-102.0316,169393,"(31.8691, -102.0316)",Midland County
396,Kentucky,38.9334,-84.5333,169066,"(38.9334, -84.5333)",Kenton County
397,Wisconsin,42.5769,-88.0424,168693,"(42.5769, -88.0424)",Kenosha County
398,Vermont,44.4611,-73.0813,168309,"(44.4611, -73.0813)",Chittenden County
399,Colorado,38.1735,-104.5127,168135,"(38.1735, -104.5127)",Pueblo County
400,Pennsylvania,41.0581,-75.3395,168128,"(41.0581, -75.3395)",Monroe County
401,Kansas,39.1146,-94.7646,167989,"(39.1146, -94.7646)",Wyandotte County
402,Pennsylvania,40.6823,-80.3493,167629,"(40.6823, -80.3493)",Beaver County
403,Ohio,39.6915,-83.8899,167567,"(39.6915, -83.8899)",Greene County
404,Maryland,38.5073,-76.9922,167035,"(38.5073, -76.9922)",Charles County
405,Montana,45.9373,-108.2744,165524,"(45.9373, -108.2744)",Yellowstone County
406,Texas,29.8082,-98.2783,165201,"(29.8082, -98.2783)",Comal County
407,Hawaii,20.8596,-156.565,164765,"(20.8596, -156.565)",Maui County
408,Georgia,32.459,-83.6662,164117,"(32.459, -83.6662)",Houston County
409,Wisconsin,42.6712,-89.0716,163817,"(42.6712, -89.0716)",Rock County
410,Minnesota,44.0038,-92.4018,162307,"(44.0038, -92.4018)",Olmsted County
411,Texas,31.8692,-102.5429,162300,"(31.8692, -102.5429)",Ector County
412,South Carolina,33.0793,-80.4067,162139,"(33.0793, -80.4067)",Dorchester County
413,Indiana,39.49,-86.1016,161952,"(39.49, -86.1016)",Johnson County
414,Ohio,41.1677,-81.1974,161217,"(41.1677, -81.1974)",Portage County
415,North Carolina,35.662,-81.2151,161011,"(35.662, -81.2151)",Catawba County
416,Florida,27.6943,-80.6064,160986,"(27.6943, -80.6064)",Indian River County
417,New York,42.7111,-73.5097,160943,"(42.7111, -73.5097)",Rensselaer County
418,Michigan,42.2485,-84.4234,160637,"(42.2485, -84.4234)",Jackson County
419,Michigan,42.9341,-82.6806,160257,"(42.9341, -82.6806)",Macomb County
420,Louisiana,32.4784,-92.1549,159585,"(32.4784, -92.1549)",Ouachita Parish
421,New York,42.8181,-74.0586,159447,"(42.8181, -74.0586)",Schenectady County
422,Florida,27.0775,-80.4315,159399,"(27.0775, -80.4315)",Martin County
423,Ohio,39.7516,-82.6306,159371,"(39.7516, -82.6306)",Fairfield County
424,Tennessee,36.5129,-82.3042,158722,"(36.5129, -82.3042)",Sullivan County
425,Pennsylvania,40.9189,-77.8199,158665,"(40.9189, -77.8199)",Centre County
426,Minnesota,45.5521,-94.613,158622,"(45.5521, -94.613)",Stearns County
427,Virginia,38.4207,-77.458,157606,"(38.4207, -77.458)",Stafford County
428,Virginia,38.8185,-77.0861,157594,"(38.8185, -77.0861)",Fairfax County
429,California,37.218,-119.7627,157243,"(37.218, -119.7627)",Madera County
430,Mississippi,32.2641,-89.9458,157185,"(32.2641, -89.9458)",Rankin County
431,Georgia,33.5441,-82.2641,156921,"(33.5441, -82.2641)",Columbia County
432,Oklahoma,35.5424,-97.9824,156681,"(35.5424, -97.9824)",Canadian County
433,Georgia,32.8065,-83.6974,156554,"(32.8065, -83.6974)",Bibb County
434,Colorado,39.0183,-108.4664,156131,"(39.0183, -108.4664)",Mesa County
435,Pennsylvania,39.9274,-77.7213,156084,"(39.9274, -77.7213)",Franklin County
436,Florida,28.8489,-82.4794,155173,"(28.8489, -82.4794)",Citrus County
437,Michigan,41.9291,-83.5394,154823,"(41.9291, -83.5394)",Monroe County
438,Maryland,39.6036,-77.814,154645,"(39.6036, -77.814)",Washington County
439,New Mexico,35.5069,-105.9763,154481,"(35.5069, -105.9763)",Santa Fe County
440,Michigan,41.9547,-86.4123,153938,"(41.9547, -86.4123)",Berrien County
441,Massachusetts,42.3402,-72.6638,153931,"(42.3402, -72.6638)",Hampshire County
442,New Hampshire,43.2975,-71.6802,153918,"(43.2975, -71.6802)",Merrimack County
443,New Jersey,39.3739,-75.1107,153588,"(39.3739, -75.1107)",Cumberland County
444,Iowa,41.6715,-91.5881,153360,"(41.6715, -91.5881)",Johnson County
445,Maine,45.4006,-68.6495,152640,"(45.4006, -68.6495)",Penobscot County
446,California,36.0752,-119.8155,152515,"(36.0752, -119.8155)",Kings County
447,Minnesota,44.6485,-93.5359,151347,"(44.6485, -93.5359)",Scott County
448,Texas,32.7776,-97.8051,151188,"(32.7776, -97.8051)",Parker County
449,Texas,32.5993,-96.2878,149773,"(32.5993, -96.2878)",Kaufman County
450,New Mexico,35.6886,-106.8659,149460,"(35.6886, -106.8659)",Sandoval County
451,Tennessee,36.1547,-86.2973,149096,"(36.1547, -86.2973)",Wilson County
452,Georgia,33.3534,-84.7634,147449,"(33.3534, -84.7634)",Coweta County
453,North Carolina,35.6394,-80.5247,147067,"(35.6394, -80.5247)",Rowan County
454,North Carolina,36.0611,-79.1207,145919,"(36.0611, -79.1207)",Orange County
455,New Jersey,41.1393,-74.6909,144808,"(41.1393, -74.6909)",Sussex County
456,Georgia,33.7018,-84.768,144735,"(33.7018, -84.768)",Douglas County
457,Arizona,35.8387,-111.7705,144705,"(35.8387, -111.7705)",Coconino County
458,North Carolina,35.7103,-79.806,144403,"(35.7103, -79.806)",Randolph County
459,Illinois,41.4673,-90.5674,143819,"(41.4673, -90.5674)",Rock Island County
460,Mississippi,30.5425,-88.6358,143721,"(30.5425, -88.6358)",Jackson County
461,Louisiana,30.4401,-90.7279,143425,"(30.4401, -90.7279)",Livingston Parish
462,Pennsylvania,40.3672,-76.4577,143258,"(40.3672, -76.4577)",Lebanon County
463,Pennsylvania,40.7058,-76.216,143201,"(40.7058, -76.216)",Schuylkill County
464,Texas,32.3015,-99.8901,143029,"(32.3015, -99.8901)",Taylor County
465,Minnesota,45.1739,-93.9631,142543,"(45.1739, -93.9631)",Wright County
466,Texas,34.9659,-101.897,141489,"(34.9659, -101.897)",Randall County
467,Virginia,38.1851,-77.6561,141097,"(38.1851, -77.6561)",Spotsylvania County
468,Indiana,39.1609,-86.5231,140065,"(39.1609, -86.5231)",Monroe County
469,North Carolina,34.0715,-78.2383,139721,"(34.0715, -78.2383)",Brunswick County
470,Wisconsin,44.8983,-89.7591,137820,"(44.8983, -89.7591)",Marathon County
471,California,38.507,-122.3306,137384,"(38.507, -122.3306)",Napa County
472,Virginia,37.0554,-76.3632,137217,"(37.0554, -76.3632)",City of Hampton
473,South Carolina,34.0245,-79.703,137015,"(34.0245, -79.703)",Florence County
474,Texas,33.6268,-96.6777,137008,"(33.6268, -96.6777)",Grayson County
475,Wisconsin,43.3685,-88.2307,136842,"(43.3685, -88.2307)",Washington County
476,Kentucky,38.9699,-84.7278,136150,"(38.9699, -84.7278)",Boone County
477,California,40.6993,-123.8756,136132,"(40.6993, -123.8756)",Humboldt County
478,Tennessee,35.6872,-83.9255,135951,"(35.6872, -83.9255)",Blount County
479,Ohio,39.9167,-83.7844,135877,"(39.9167, -83.7844)",Clark County
480,Kentucky,36.9936,-86.4238,135307,"(36.9936, -86.4238)",Warren County
481,North Carolina,35.3688,-78.8693,134718,"(35.3688, -78.8693)",Harnett County
482,Utah,41.7225,-111.7436,134428,"(41.7225, -111.7436)",Cache County
483,Michigan,42.2465,-85.0056,134011,"(42.2465, -85.0056)",Calhoun County
484,Louisiana,30.6266,-90.4057,133953,"(30.6266, -90.4057)",Tangipahoa Parish
485,Tennessee,36.2933,-82.4974,133282,"(36.2933, -82.4974)",Washington County
486,Pennsylvania,40.4952,-78.7135,133263,"(40.4952, -78.7135)",Cambria County
487,Illinois,41.5906,-88.4288,132795,"(41.5906, -88.4288)",Kendall County
488,Florida,28.7048,-82.081,131832,"(28.7048, -82.081)",Sumter County
489,Ohio,41.3617,-83.623,131564,"(41.3617, -83.623)",Wood County
490,Illinois,40.5075,-89.5134,131276,"(40.5075, -89.5134)",Tazewell County
491,South Carolina,34.8873,-82.7253,131106,"(34.8873, -82.7253)",Pickens County
492,Iowa,42.4701,-92.3088,131041,"(42.4701, -92.3088)",Black Hawk County
493,New Hampshire,43.2969,-71.0289,130965,"(43.2969, -71.0289)",Strafford County
494,Indiana,40.1616,-85.7194,130545,"(40.1616, -85.7194)",Madison County
495,Rhode Island,41.4697,-71.6226,129998,"(41.4697, -71.6226)",Washington County
496,Texas,33.9879,-98.7035,129584,"(33.9879, -98.7035)",Wichita County
497,Louisiana,31.1986,-92.5332,129536,"(31.1986, -92.5332)",Rapides Parish
498,Washington,48.4795,-121.7291,129480,"(48.4795, -121.7291)",Snohomish County
499,New Jersey,40.5673,-74.9122,129099,"(40.5673, -74.9122)",Hunterdon County
500,Louisiana,32.6784,-93.6049,128877,"(32.6784, -93.6049)",Bossier Parish
501,Georgia,33.9512,-83.3673,128864,"(33.9512, -83.3673)",Clarke County
502,Massachusetts,42.3707,-73.2063,128763,"(42.3707, -73.2063)",Berkshire County
503,Oregon,44.4887,-122.5343,128598,"(44.4887, -122.5343)",Linn County
504,Pennsylvania,39.9201,-79.6474,128417,"(39.9201, -79.6474)",Fayette County
505,Arkansas,35.1989,-94.2743,128184,"(35.1989, -94.2743)",Sebastian County
506,New York,42.2281,-79.3663,127440,"(42.2281, -79.3663)",Chautauqua County
507,Louisiana,30.2036,-90.9113,126973,"(30.2036, -90.9113)",Ascension Parish
508,Arizona,31.8796,-109.7512,125504,"(31.8796, -109.7512)",Cochise County
509,Ohio,40.7747,-82.5365,125008,"(40.7747, -82.5365)",Richland County
510,Arkansas,35.147,-92.332,124611,"(35.147, -92.332)",Faulkner County
511,Idaho,43.3877,-111.6148,124490,"(43.3877, -111.6148)",Bonneville County
512,Texas,32.4805,-94.817,124245,"(32.4805, -94.817)",Gregg County
513,Maine,44.4091,-69.7673,124003,"(44.4091, -69.7673)",Kennebec County
514,Arkansas,34.6466,-92.6766,123988,"(34.6466, -92.6766)",Saline County
515,West Virginia,39.4641,-78.0275,123283,"(39.4641, -78.0275)",Berkeley County
516,Alabama,34.4535,-86.8529,123102,"(34.4535, -86.8529)",Morgan County
517,Missouri,37.2036,-94.3406,122788,"(37.2036, -94.3406)",Jasper County
518,Pennsylvania,40.4811,-78.3484,122640,"(40.4811, -78.3484)",Blair County
519,New Mexico,36.5085,-108.3206,121798,"(36.5085, -108.3206)",San Juan County
520,Oklahoma,34.6621,-98.4717,121777,"(34.6621, -98.4717)",Comanche County
521,Indiana,38.4772,-85.7073,121484,"(38.4772, -85.7073)",Clark County
522,Wisconsin,43.9066,-91.1152,120216,"(43.9066, -91.1152)",La Crosse County
523,Michigan,42.5913,-85.8884,120189,"(42.5913, -85.8884)",Allegan County
524,Georgia,33.5828,-85.0798,120060,"(33.5828, -85.0798)",Carroll County
525,Montana,45.5404,-111.1704,119685,"(45.5404, -111.1704)",Gallatin County
526,Texas,31.4044,-100.4621,119276,"(31.4044, -100.4621)",Tom Green County
527,Georgia,33.4139,-84.4943,119259,"(33.4139, -84.4943)",Fayette County
528,Kansas,38.8847,-95.2926,119094,"(38.8847, -95.2926)",Douglas County
529,Montana,47.0365,-113.9237,118541,"(47.0365, -113.9237)",Missoula County
530,Georgia,30.8338,-83.2677,118257,"(30.8338, -83.2677)",Lowndes County
531,New York,43.4269,-76.1414,118037,"(43.4269, -76.1414)",Oswego County
532,Texas,35.4013,-101.8939,117905,"(35.4013, -101.8939)",Potter County
533,Wisconsin,43.7212,-87.9454,117741,"(43.7212, -87.9454)",Sheboygan County
534,North Carolina,34.6402,-79.1039,117573,"(34.6402, -79.1039)",Robeson County
535,Florida,29.4614,-81.3136,117515,"(29.4614, -81.3136)",Flagler County
536,North Carolina,35.364,-78.004,117480,"(35.364, -78.004)",Wayne County
537,New York,44.0495,-75.9203,117445,"(44.0495, -75.9203)",Jefferson County
538,Ohio,40.8289,-81.888,116680,"(40.8289, -81.888)",Wayne County
539,North Carolina,35.3363,-82.48,116469,"(35.3363, -82.48)",Henderson County
540,Alabama,33.7714,-85.826,116162,"(33.7714, -85.826)",Calhoun County
541,Pennsylvania,41.3434,-77.0645,114022,"(41.3434, -77.0645)",Lycoming County
542,Maryland,38.3024,-76.6058,113814,"(38.3024, -76.6058)",Saint Mary's County
543,Georgia,33.555,-83.8502,113298,"(33.555, -83.8502)",Newton County
544,Connecticut,41.8469,-73.2212,112696,"(41.8469, -73.2212)",Litchfield County
545,Virginia,38.0229,-78.5567,112513,"(38.0229, -78.5567)",City of Charlottesville
546,New York,42.8528,-77.2998,112288,"(42.8528, -77.2998)",Ontario County
547,Indiana,41.546,-86.74,112215,"(41.546, -86.74)",LaPorte County
548,Indiana,40.2275,-85.3969,112156,"(40.2275, -85.3969)",Delaware County
549,Maine,44.1658,-70.2065,111532,"(44.1658, -70.2065)",Androscoggin County
550,Oregon,43.2797,-123.1665,111322,"(43.2797, -123.1665)",Douglas County
551,Arkansas,35.8308,-90.6328,111038,"(35.8308, -90.6328)",Craighead County
552,Kentucky,37.6979,-85.9634,111005,"(37.6979, -85.9634)",Hardin County
553,Texas,32.8978,-96.4079,110631,"(32.8978, -96.4079)",Rockwall County
554,Washington,46.1932,-122.681,110621,"(46.1932, -122.681)",Cowlitz County
555,Pennsylvania,41.3022,-80.2577,110600,"(41.3022, -80.2577)",Mercer County
556,Virginia,37.7601,-77.491,110513,"(37.7601, -77.491)",Hanover County
557,South Dakota,44.0037,-102.8238,110386,"(44.0037, -102.8238)",Pennington County
558,New Jersey,40.8572,-74.9973,109739,"(40.8572, -74.9973)",Warren County
559,Illinois,41.344,-88.8859,109495,"(41.344, -88.8859)",LaSalle County
560,Georgia,34.2377,-84.8403,109410,"(34.2377, -84.8403)",Bartow County
561,Mississippi,32.6347,-90.0337,109257,"(32.6347, -90.0337)",Madison County
562,Michigan,42.5961,-84.8383,109072,"(42.5961, -84.8383)",Eaton County
563,Louisiana,29.4148,-90.8663,108862,"(29.4148, -90.8663)",Terrebonne Parish
564,Tennessee,35.1541,-84.8596,108859,"(35.1541, -84.8596)",Bradley County
565,Ohio,40.0535,-84.2288,108818,"(40.0535, -84.2288)",Miami County
566,New York,44.4964,-75.0691,108670,"(44.4964, -75.0691)",St. Lawrence County
567,Alaska,62.316,-149.5729,108661,"(62.316, -149.5729)",Matanuska-Susitna Borough
568,Missouri,38.647,-94.3549,108205,"(38.647, -94.3549)",Cass County
569,Oregon,45.2326,-123.3081,107674,"(45.2326, -123.3081)",Yamhill County
570,Illinois,41.1377,-87.8618,107421,"(41.1377, -87.8618)",Kankakee County
571,Minnesota,44.8207,-93.8026,107216,"(44.8207, -93.8026)",Carver County
572,Arizona,35.3996,-110.3214,107110,"(35.3996, -110.3214)",Navajo County
573,Alabama,31.1532,-85.3025,107040,"(31.1532, -85.3025)",Houston County
574,Missouri,39.3803,-94.7738,107033,"(39.3803, -94.7738)",Platte County
575,Indiana,39.4306,-87.39,106355,"(39.4306, -87.39)",Vigo County
576,West Virginia,39.6303,-80.0466,105988,"(39.6303, -80.0466)",Monongalia County
577,Montana,48.2951,-114.0497,105950,"(48.2951, -114.0497)",Flathead County
578,Wisconsin,44.7268,-91.286,105697,"(44.7268, -91.286)",Eau Claire County
579,Iowa,42.3897,-96.0448,105526,"(42.3897, -96.0448)",Woodbury County
580,South Carolina,33.9162,-80.3822,105199,"(33.9162, -80.3822)",Sumter County
581,Wisconsin,42.6685,-88.5419,105127,"(42.6685, -88.5419)",Walworth County
582,Missouri,38.4111,-91.075,104858,"(38.4111, -91.075)",Franklin County
583,Pennsylvania,39.8715,-77.2178,104604,"(39.8715, -77.2178)",Adams County
584,Alabama,34.8101,-86.9814,104199,"(34.8101, -86.9814)",Limestone County
585,Wisconsin,43.7536,-88.4883,104027,"(43.7536, -88.4883)",Fond du Lac County
586,Maryland,39.5712,-75.9407,103876,"(39.5712, -75.9407)",Cecil County
587,Maryland,38.3733,-75.6208,103815,"(38.3733, -75.6208)",Wicomico County
588,Michigan,43.7075,-83.9924,103752,"(43.7075, -83.9924)",Bay County
589,Illinois,39.86,-88.9616,103542,"(39.86, -88.9616)",Macon County
590,Alabama,34.0453,-86.0348,103348,"(34.0453, -86.0348)",Etowah County
591,Georgia,34.8056,-84.9672,103033,"(34.8056, -84.9672)",Whitfield County
592,Kentucky,37.7318,-87.0873,102916,"(37.7318, -87.0873)",Daviess County
593,New York,42.452,-76.4736,102555,"(42.452, -76.4736)",Tompkins County
594,Florida,27.3433,-81.341,102339,"(27.3433, -81.341)",Highlands County
595,California,39.3013,-120.7689,102322,"(39.3013, -120.7689)",Nevada County
596,Ohio,40.7715,-84.1058,102087,"(40.7715, -84.1058)",Allen County
597,Tennessee,35.6169,-87.077,102002,"(35.6169, -87.077)",Maury County
598,Ohio,40.7684,-80.7772,101723,"(40.7684, -80.7772)",Columbiana County
599,Texas,33.1236,-96.0855,101596,"(33.1236, -96.0855)",Hunt County
600,North Carolina,35.1249,-77.0939,101098,"(35.1249, -77.0939)",Craven County
601,North Carolina,35.3106,-79.4814,100759,"(35.3106, -79.4814)",Moore County
602,Illinois,41.8935,-88.7703,100686,"(41.8935, -88.7703)",DeKalb County
603,Iowa,41.6849,-94.0398,100367,"(41.6849, -94.0398)",Dallas County
604,Wyoming,41.3069,-104.6894,100316,"(41.3069, -104.6894)",Laramie County
605,Arkansas,34.5767,-93.1504,100021,"(34.5767, -93.1504)",Garland County
606,North Carolina,35.3341,-81.5555,99527,"(35.3341, -81.5555)",Cleveland County
607,Virginia,37.1743,-80.3872,99373,"(37.1743, -80.3872)",Montgomery County
608,Michigan,41.8951,-84.0664,99263,"(41.8951, -84.0664)",Lenawee County
609,Virginia,37.2785,-79.958,99213,"(37.2785, -79.958)",City of Roanoke
610,Washington,47.2057,-119.4518,99145,"(47.2057, -119.4518)",Grant County
611,California,39.0346,-121.6948,99101,"(39.0346, -121.6948)",Sutter County
612,Iowa,42.4688,-90.8825,98812,"(42.4688, -90.8825)",Dubuque County
613,Tennessee,35.6081,-88.8385,98644,"(35.6081, -88.8385)",Madison County
614,Iowa,42.0362,-93.465,98573,"(42.0362, -93.465)",Story County
615,Georgia,34.2632,-85.2143,98541,"(34.2632, -85.2143)",Floyd County
616,Tennessee,35.7846,-83.5242,98455,"(35.7846, -83.5242)",Sevier County
617,North Dakota,46.9774,-100.4687,98443,"(46.9774, -100.4687)",Burleigh County
618,Texas,30.1036,-97.312,98435,"(30.1036, -97.312)",Bastrop County
619,New York,41.4267,-73.7495,97942,"(41.4267, -73.7495)",Putnam County
620,Alabama,34.367,-86.3066,97923,"(34.367, -86.3066)",Marshall County
621,Minnesota,45.444,-93.7746,97820,"(45.444, -93.7746)",Sherburne County
622,Georgia,33.7816,-83.7339,97752,"(33.7816, -83.7339)",Walton County
623,Ohio,41.7072,-80.7482,97666,"(41.7072, -80.7482)",Ashtabula County
624,South Carolina,34.6867,-80.7054,97611,"(34.6867, -80.7054)",Lancaster County
625,Virginia,36.8453,-76.3554,97384,"(36.8453, -76.3554)",City of Portsmouth
626,Louisiana,29.5662,-90.4256,97220,"(29.5662, -90.4256)",Lafourche Parish
627,Washington,46.5347,-118.899,96692,"(46.5347, -118.899)",Franklin County
628,Virginia,37.2693,-80.068,96653,"(37.2693, -80.068)",City of Salem
629,Alaska,64.8078,-146.5654,96299,"(64.8078, -146.5654)",Fairbanks North Star Borough
630,Oklahoma,36.3715,-95.6043,95870,"(36.3715, -95.6043)",Rogers County
631,Connecticut,41.827,-71.9769,95687,"(41.827, -71.9769)",Windham County
632,Oregon,44.4918,-123.4293,95615,"(44.4918, -123.4293)",Benton County
633,New Jersey,39.1495,-74.8004,95456,"(39.1495, -74.8004)",Cape May County
634,Ohio,41.4995,-81.1786,95455,"(41.4995, -81.1786)",Geauga County
635,Michigan,44.6687,-85.5605,95315,"(44.6687, -85.5605)",Grand Traverse County
636,North Carolina,35.9673,-77.9864,95015,"(35.9673, -77.9864)",Nash County
637,Virginia,36.6953,-76.6398,94856,"(36.6953, -76.6398)",City of Suffolk
638,Alabama,34.9014,-87.654,94329,"(34.9014, -87.654)",Lauderdale County
639,West Virginia,38.4203,-82.2417,93965,"(38.4203, -82.2417)",Cabell County
640,Wisconsin,45.034,-92.4526,93752,"(45.034, -92.4526)",Saint Croix County
641,Georgia,33.6543,-84.0266,93641,"(33.6543, -84.0266)",Rockdale County
642,New York,42.2678,-77.3838,93584,"(42.2678, -77.3838)",Steuben County
643,Iowa,41.3366,-95.5423,93543,"(41.3366, -95.5423)",Pottawattamie County
644,Texas,30.1516,-94.8122,93523,"(30.1516, -94.8122)",Liberty County
645,Maryland,38.5434,-76.5687,93244,"(38.5434, -76.5687)",Calvert County
646,Kentucky,38.9465,-84.3795,93122,"(38.9465, -84.3795)",Campbell County
647,Kentucky,37.7202,-84.278,92955,"(37.7202, -84.278)",Madison County
648,Ohio,40.4409,-81.4737,92840,"(40.4409, -81.4737)",Tuscarawas County
649,Texas,33.4458,-94.4234,92747,"(33.4458, -94.4234)",Bowie County
650,Virginia,39.2046,-78.2626,92007,"(39.2046, -78.2626)",Frederick County
651,Wisconsin,43.384,-87.9509,91745,"(43.384, -87.9509)",Ozaukee County
652,Alabama,33.7157,-86.3146,91719,"(33.7157, -86.3146)",Saint Clair County
653,Florida,30.6107,-81.8019,91538,"(30.6107, -81.8019)",Nassau County
654,Pennsylvania,40.852,-76.7095,91340,"(40.852, -76.7095)",Northumberland County
655,New York,43.1566,-77.0294,91324,"(43.1566, -77.0294)",Wayne County
656,Texas,28.7964,-96.9715,91209,"(28.7964, -96.9715)",Victoria County
657,North Carolina,36.396,-79.775,91209,"(36.396, -79.775)",Rockingham County
658,California,39.4402,-123.3915,91145,"(39.4402, -123.3915)",Mendocino County
659,New Hampshire,43.9407,-71.8208,90836,"(43.9407, -71.8208)",Grafton County
660,Idaho,42.356,-114.6672,90592,"(42.356, -114.6672)",Twin Falls County
661,Missouri,36.9696,-93.1889,89568,"(36.9696, -93.1889)",Christian County
662,Wisconsin,43.4163,-88.7075,89032,"(43.4163, -88.7075)",Dodge County
663,Michigan,43.0901,-83.2218,88687,"(43.0901, -83.2218)",Lapeer County
664,Alabama,34.1319,-86.8676,88284,"(34.1319, -86.8676)",Cullman County
665,Oregon,42.3655,-123.5555,87994,"(42.3655, -123.5555)",Josephine County
666,North Carolina,35.4856,-81.2235,87933,"(35.4856, -81.2235)",Lincoln County
667,North Carolina,35.7496,-81.7048,87799,"(35.7496, -81.7048)",Burke County
668,Alabama,32.5966,-86.1492,87694,"(32.5966, -86.1492)",Elmore County
669,Oregon,44.9035,-123.4132,87600,"(44.9035, -123.4132)",Polk County
670,Idaho,42.6685,-112.2246,87434,"(42.6685, -112.2246)",Bannock County
671,Texas,31.2548,-94.6119,86608,"(31.2548, -94.6119)",Angelina County
672,Washington,48.163,-122.5481,86510,"(48.163, -122.5481)",Island County
673,Ohio,39.9654,-81.9444,86393,"(39.9654, -81.9444)",Muskingum County
674,Wisconsin,43.0208,-88.7759,85932,"(43.0208, -88.7759)",Jefferson County
675,Pennsylvania,40.9912,-80.3347,85907,"(40.9912, -80.3347)",Lawrence County
676,Rhode Island,41.5568,-71.2363,85442,"(41.5568, -71.2363)",Newport County
677,Georgia,31.5335,-84.2164,85038,"(31.5335, -84.2164)",Dougherty County
678,Texas,30.1213,-93.8939,84761,"(30.1213, -93.8939)",Orange County
679,Georgia,31.2309,-81.5407,84566,"(31.2309, -81.5407)",Glynn County
680,Missouri,39.6598,-94.8059,84544,"(39.6598, -94.8059)",Buchanan County
681,Montana,47.308,-111.347,84423,"(47.308, -111.347)",Cascade County
682,Georgia,33.9932,-83.7127,84399,"(33.9932, -83.7127)",Barrow County
683,West Virginia,39.2112,-81.515,84272,"(39.2112, -81.515)",Wood County
684,South Carolina,33.439,-80.8003,84159,"(33.439, -80.8003)",Orangeburg County
685,Virginia,38.512,-78.8757,83905,"(38.512, -78.8757)",City of Harrisonburg
686,Pennsylvania,41.6847,-80.1062,83876,"(41.6847, -80.1062)",Crawford County
687,New York,42.1413,-76.76,83584,"(42.1413, -76.76)",Chemung County
688,Michigan,43.6468,-84.3881,83503,"(43.6468, -84.3881)",Midland County
689,Indiana,40.4836,-86.1169,83452,"(40.4836, -86.1169)",Howard County
690,Pennsylvania,40.652,-79.0876,83394,"(40.652, -79.0876)",Indiana County
691,Mississippi,34.2899,-88.6804,83343,"(34.2899, -88.6804)",Lee County
692,Texas,31.3909,-97.7993,82927,"(31.3909, -97.7993)",Coryell County
693,Washington,46.5778,-122.3927,82663,"(46.5778, -122.3927)",Lewis County
694,Texas,32.2119,-95.8536,82627,"(32.2119, -95.8536)",Henderson County
695,Louisiana,30.5989,-92.0058,82574,"(30.5989, -92.0058)",Saint Landry Parish
696,Kentucky,37.9701,-85.6959,82482,"(37.9701, -85.6959)",Bullitt County
697,Indiana,39.206,-85.8976,82371,"(39.206, -85.8976)",Bartholomew County
698,Oklahoma,35.9611,-95.5212,82269,"(35.9611, -95.5212)",Wagoner County
699,Oklahoma,36.0773,-96.9756,82058,"(36.0773, -96.9756)",Payne County
700,Kansas,39.1993,-95.038,82050,"(39.1993, -95.038)",Leavenworth County
701,Florida,25.3192,-81.1089,82044,"(25.3192, -81.1089)",Monroe County
702,California,39.269,-121.3513,81705,"(39.269, -121.3513)",Yuba County
703,Missouri,37.384,-89.6845,81703,"(37.384, -89.6845)",Cape Girardeau County
704,Wisconsin,44.1199,-87.8097,81242,"(44.1199, -87.8097)",Manitowoc County
705,Alabama,33.3801,-86.1659,81105,"(33.3801, -86.1659)",Talladega County
706,North Carolina,35.953,-81.5464,80716,"(35.953, -81.5464)",Caldwell County
707,Indiana,41.2441,-85.8607,80442,"(41.2441, -85.8607)",Kosciusko County
708,Indiana,38.3188,-85.907,80191,"(38.3188, -85.907)",Floyd County
709,Indiana,39.8236,-85.7733,80170,"(39.8236, -85.7733)",Hancock County
710,Tennessee,36.1408,-85.4952,80157,"(36.1408, -85.4952)",Putnam County
711,Oregon,45.5919,-118.7369,79904,"(45.5919, -118.7369)",Umatilla County
712,New York,44.7462,-73.6782,79839,"(44.7462, -73.6782)",Clinton County
713,Georgia,32.3968,-81.7432,79829,"(32.3968, -81.7432)",Bulloch County
714,Virginia,37.3152,-79.5242,79761,"(37.3152, -79.5242)",City of Bedford
715,Pennsylvania,41,-78.4742,79707,"(41.0, -78.4742)",Clearfield County
716,Wyoming,42.9622,-106.7986,79506,"(42.9622, -106.7986)",Natrona County
717,Michigan,42.9437,-84.6015,79249,"(42.9437, -84.6015)",Clinton County
718,Virginia,37.4003,-79.1909,79166,"(37.4003, -79.1909)",City of Lynchburg
719,Washington,47.8692,-120.619,79076,"(47.8692, -120.619)",Chelan County
720,Virginia,37.3289,-76.7789,78818,"(37.3289, -76.7789)",James City County
721,South Carolina,34.7535,-83.0659,78775,"(34.7535, -83.0659)",Oconee County
722,New York,41.7164,-74.7681,78725,"(41.7164, -74.7681)",Sullivan County
723,North Carolina,35.7051,-77.9187,78667,"(35.7051, -77.9187)",Wilson County
724,Mississippi,31.1889,-89.2579,77917,"(31.1889, -89.2579)",Forrest County
725,Virginia,38.1644,-79.1339,77433,"(38.1644, -79.1339)",City of Staunton
726,Tennessee,36.1185,-84.1985,77337,"(36.1185, -84.1985)",Anderson County
727,Washington,48.0493,-123.9308,77333,"(48.0493, -123.9308)",
728,Texas,30.739,-95.5723,77182,"(30.739, -95.5723)",Walker County
729,Arkansas,35.2563,-91.7456,77118,"(35.2563, -91.7456)",White County
730,Georgia,34.1339,-83.5664,77033,"(34.1339, -83.5664)",Jackson County
731,New York,42.2486,-78.6788,77000,"(42.2486, -78.6788)",Cattaraugus County
732,Ohio,39.3376,-83.057,76957,"(39.3376, -83.057)",Ross County
733,Missouri,38.5054,-92.2816,76890,"(38.5054, -92.2816)",Cole County
734,North Carolina,35.7026,-79.2553,76754,"(35.7026, -79.2553)",Chatham County
735,Florida,30.6436,-86.1697,76618,"(30.6436, -86.1697)",Walton County
736,New Mexico,34.7155,-106.809,76613,"(34.7155, -106.809)",Valencia County
737,New Hampshire,42.9193,-72.2512,76610,"(42.9193, -72.2512)",Cheshire County
738,New York,42.9175,-76.5545,76171,"(42.9175, -76.5545)",Cayuga County
739,Washington,47.1503,-123.7735,75672,"(47.1503, -123.7735)",Grays Harbor County
740,Michigan,42.2513,-86.0188,75636,"(42.2513, -86.0188)",Van Buren County
741,Ohio,41.3641,-82.6194,75299,"(41.3641, -82.6194)",Erie County
742,Ohio,41.0019,-83.6665,75072,"(41.0019, -83.6665)",Hancock County
743,West Virginia,37.7714,-81.2487,74303,"(37.7714, -81.2487)",Raleigh County
744,Arkansas,34.7543,-91.8888,74292,"(34.7543, -91.8888)",Lonoke County
745,Wisconsin,44.4553,-90.0416,74138,"(44.4553, -90.0416)",Wood County
746,Illinois,40.1834,-87.7328,74113,"(40.1834, -87.7328)",Vermilion County
747,Utah,40.4487,-113.1311,74032,"(40.4487, -113.1311)",Tooele County
748,Colorado,39.9541,-105.0527,73946,"(39.9541, -105.0527)",Broomfield County
749,Pennsylvania,39.9725,-79.0283,73802,"(39.9725, -79.0283)",Somerset County
750,Ohio,38.8039,-82.9929,73716,"(38.8039, -82.9929)",Scioto County
751,Florida,29.6087,-81.7443,73604,"(29.6087, -81.7443)",Putnam County
752,Hawaii,22.04,-159.5961,73511,"(22.04, -159.5961)",Kauai County
753,Tennessee,36.5255,-86.8706,73297,"(36.5255, -86.8706)",Robertson County
754,Virginia,38.7386,-77.8092,73290,"(38.7386, -77.8092)",Fauquier County
755,New Mexico,32.7921,-103.4125,73103,"(32.7921, -103.4125)",Lea County
756,North Dakota,47.9219,-97.4569,72927,"(47.9219, -97.4569)",Grand Forks County
757,Kentucky,36.8941,-87.4904,72766,"(36.8941, -87.4904)",Christian County
758,Mississippi,32.4043,-88.6626,72741,"(32.4043, -88.6626)",Lauderdale County
759,Oklahoma,35.2066,-96.9484,72734,"(35.2066, -96.9484)",Pottawatomie County
760,Kansas,39.2966,-96.7352,72105,"(39.2966, -96.7352)",Riley County
761,Oklahoma,35.9026,-96.3709,72076,"(35.9026, -96.3709)",Creek County
762,New Mexico,35.5807,-108.2618,72073,"(35.5807, -108.2618)",McKinley County
763,Indiana,39.4816,-86.4462,71757,"(39.4816, -86.4462)",Morgan County
764,Alabama,34.4598,-85.8041,71680,"(34.4598, -85.8041)",DeKalb County
765,Montana,47.1224,-112.3904,71487,"(47.1224, -112.3904)",Lewis and Clark County
766,North Carolina,36.4146,-80.688,71429,"(36.4146, -80.688)",Surry County
767,Indiana,40.0508,-86.4687,71235,"(40.0508, -86.4687)",Boone County
768,Massachusetts,42.5831,-72.5918,70980,"(42.5831, -72.5918)",Franklin County
769,Tennessee,36.1753,-82.8458,70399,"(36.1753, -82.8458)",Greene County
770,Wisconsin,44.476,-89.5014,70281,"(44.476, -89.5014)",Portage County
771,Virginia,37.2431,-76.5635,70238,"(37.2431, -76.5635)",York County
772,Texas,33.2159,-97.6545,70062,"(33.2159, -97.6545)",Wise County
773,Louisiana,29.8967,-91.7308,69958,"(29.8967, -91.7308)",Iberia Parish
774,Florida,30.2242,-82.6215,69832,"(30.2242, -82.6215)",Columbia County
775,North Carolina,36.0828,-78.2857,69680,"(36.0828, -78.2857)",Franklin County
776,North Dakota,48.2217,-101.5418,69532,"(48.2217, -101.5418)",Ward County
777,Georgia,33.0335,-85.0284,69527,"(33.0335, -85.0284)",Troup County
778,Oregon,42.6864,-121.6501,69506,"(42.6864, -121.6501)",Klamath County
779,South Carolina,34.1537,-82.1259,69309,"(34.1537, -82.1259)",Greenwood County
780,Texas,32.5481,-94.3715,69098,"(32.5481, -94.3715)",Harrison County
781,Minnesota,44.0346,-94.067,69022,"(44.0346, -94.067)",Nicollet County
782,Texas,28.0092,-97.5188,68942,"(28.0092, -97.5188)",San Patricio County
783,North Carolina,34.8357,-76.6589,68353,"(34.8357, -76.6589)",Carteret County
784,Maryland,39.6214,-78.6976,68161,"(39.6214, -78.6976)",Allegany County
785,Michigan,42.9537,-84.1467,68124,"(42.9537, -84.1467)",Shiawassee County
786,Georgia,34.7356,-85.301,68065,"(34.7356, -85.301)",Walker County
787,Georgia,34.9036,-85.1382,68052,"(34.9036, -85.1382)",Catoosa County
788,California,39.1,-122.7534,68024,"(39.1, -122.7534)",Lake County
789,New York,42.9128,-75.6696,68020,"(42.9128, -75.6696)",Madison County
790,Kentucky,38.3994,-85.4483,67997,"(38.3994, -85.4483)",Oldham County
791,New Mexico,32.6132,-105.7414,67850,"(32.6132, -105.7414)",Otero County
792,Kansas,37.7812,-96.839,67618,"(37.7812, -96.839)",Butler County
793,Kentucky,37.054,-88.7128,67573,"(37.054, -88.7128)",McCracken County
794,South Carolina,34.4834,-82.0057,67456,"(34.4834, -82.0057)",Laurens County
795,Georgia,33.2609,-84.2841,67415,"(33.2609, -84.2841)",Spalding County
796,Maine,46.6589,-68.5989,67237,"(46.6589, -68.5989)",Aroostook County
797,Minnesota,44.3543,-93.2967,67152,"(44.3543, -93.2967)",Rice County
798,Mississippi,31.6225,-89.1688,67152,"(31.6225, -89.1688)",Jones County
799,Illinois,37.7303,-88.9299,67120,"(37.7303, -88.9299)",Williamson County
800,Arkansas,34.2683,-91.9304,66934,"(34.2683, -91.9304)",Jefferson County
801,Michigan,43.311,-85.1525,66901,"(43.311, -85.1525)",Montcalm County
802,Missouri,37.8102,-90.4722,66814,"(37.8102, -90.4722)",Saint Francois County
803,Michigan,42.9451,-85.0746,66663,"(42.9451, -85.0746)",Ionia County
804,Oklahoma,35.6162,-95.3795,66606,"(35.6162, -95.3795)",Muskogee County
805,Indiana,40.5158,-85.6547,66560,"(40.5158, -85.6547)",Grant County
806,Minnesota,46.4824,-94.0709,66558,"(46.4824, -94.0709)",Crow Wing County
807,Ohio,40.0158,-80.9885,66554,"(40.0158, -80.9885)",Belmont County
808,Indiana,39.8644,-85.0098,66522,"(39.8644, -85.0098)",Wayne County
809,Michigan,46.4313,-87.6416,66376,"(46.4313, -87.6416)",Marquette County
810,Wisconsin,45.0694,-91.2799,66254,"(45.0694, -91.2799)",Chippewa County
811,North Carolina,36.2062,-81.163,66125,"(36.2062, -81.163)",Wilkes County
812,Arizona,35.3955,-109.4888,66054,"(35.3955, -109.4888)",Apache County
813,Washington,47.3483,-123.193,66053,"(47.3483, -123.193)",Mason County
814,West Virginia,39.2835,-80.3799,65862,"(39.2835, -80.3799)",Harrison County
815,South Dakota,43.2789,-96.7218,65801,"(43.2789, -96.7218)",Lincoln County
816,South Carolina,34.3388,-80.5902,65779,"(34.3388, -80.5902)",Kershaw County
817,Texas,26.5621,-98.7387,65716,"(26.5621, -98.7387)",Starr County
818,New York,43.561,-73.846,65684,"(43.561, -73.846)",Warren County
819,Wisconsin,43.4267,-89.9482,65664,"(43.4267, -89.9482)",Sauk County
820,Illinois,39.9879,-91.1885,65583,"(39.9879, -91.1885)",Adams County
821,Georgia,31.8282,-81.4949,65550,"(31.8282, -81.4949)",Liberty County
822,Pennsylvania,40.8121,-79.4646,65538,"(40.8121, -79.4646)",Armstrong County
823,California,40.1256,-122.2341,65484,"(40.1256, -122.2341)",Tehama County
824,Ohio,40.5872,-83.1609,65366,"(40.5872, -83.1609)",Marion County
825,Georgia,32.3674,-81.3414,65314,"(32.3674, -81.3414)",Effingham County
826,Minnesota,46.8923,-96.4906,65307,"(46.8923, -96.4906)",Clay County
827,Ohio,40.385,-80.761,65280,"(40.385, -80.761)",Jefferson County
828,Kentucky,37.1039,-84.5772,65145,"(37.1039, -84.5772)",Pulaski County
829,Pennsylvania,40.9182,-75.7088,65018,"(40.9182, -75.7088)",Carbon County
830,Alabama,33.8033,-87.2973,64978,"(33.8033, -87.2973)",Walker County
831,Michigan,43.6406,-84.8468,64938,"(43.6406, -84.8468)",Isabella County
832,Pennsylvania,41.0486,-76.4052,64924,"(41.0486, -76.4052)",Columbia County
833,Oregon,43.1742,-124.0594,64908,"(43.1742, -124.0594)",Coos County
834,New Jersey,39.5876,-75.3491,64840,"(39.5876, -75.3491)",Salem County
835,Texas,31.616,-94.6159,64768,"(31.616, -94.6159)",Nacogdoches County
836,California,36.6057,-121.075,64753,"(36.6057, -121.075)",Monterey County
837,New Mexico,33.3633,-104.4669,64701,"(33.3633, -104.4669)",Chaves County
838,North Carolina,35.4026,-81.9198,64680,"(35.4026, -81.9198)",Rutherford County
839,Tennessee,36.2171,-83.2667,64531,"(36.2171, -83.2667)",Hamblen County
840,Mississippi,31.206,-89.5087,64425,"(31.206, -89.5087)",Lamar County
841,Indiana,38.0922,-87.2721,64065,"(38.0922, -87.2721)",Warrick County
842,New Hampshire,43.5179,-71.4227,63914,"(43.5179, -71.4227)",Belknap County
843,South Carolina,33.4343,-79.3326,63594,"(33.4343, -79.3326)",Georgetown County
844,North Carolina,35.4752,-79.1715,63560,"(35.4752, -79.1715)",Lee County
845,Arkansas,35.4479,-93.0345,63475,"(35.4479, -93.0345)",Pope County
846,Ohio,40.2994,-83.3716,63411,"(40.2994, -83.3716)",Union County
847,South Carolina,34.3325,-79.9577,63025,"(34.3325, -79.9577)",Darlington County
848,North Carolina,35.3119,-80.251,62723,"(35.3119, -80.251)",Stanly County
849,Ohio,40.3988,-82.4215,62657,"(40.3988, -82.4215)",Knox County
850,Michigan,42.595,-85.309,62581,"(42.595, -85.309)",Barry County
851,Nebraska,40.8726,-98.5022,62575,"(40.8726, -98.5022)",Hall County
852,Texas,32.4299,-97.8323,62459,"(32.4299, -97.8323)",Hood County
853,Oklahoma,36.3791,-97.7827,62456,"(36.3791, -97.7827)",Garfield County
854,Kentucky,37.1107,-84.1178,62442,"(37.1107, -84.1178)",Laurel County
855,North Carolina,35.556,-82.9822,62152,"(35.556, -82.9822)",Haywood County
856,Washington,46.2298,-118.4784,62150,"(46.2298, -118.4784)",Walla Walla County
857,New York,42.7281,-77.7755,61980,"(42.7281, -77.7755)",Livingston County
858,Kansas,37.953,-98.086,61881,"(37.953, -98.086)",Reno County
859,Colorado,39.5993,-107.9039,61683,"(39.5993, -107.9039)",Garfield County
860,North Carolina,34.5249,-77.9052,61592,"(34.5249, -77.9052)",Pender County
861,Tennessee,35.9504,-84.9984,61552,"(35.9504, -84.9984)",Cumberland County
862,New York,42.2501,-73.6318,61469,"(42.2501, -73.6318)",Columbia County
863,New York,43.3137,-73.4308,61310,"(43.3137, -73.4308)",Washington County
864,Ohio,39.3339,-82.0452,61276,"(39.3339, -82.0452)",Athens County
865,New Mexico,32.4714,-104.3044,61264,"(32.4714, -104.3044)",Eddy County
866,North Carolina,36.304,-78.6527,61161,"(36.304, -78.6527)",Granville County
867,Tennessee,35.4973,-89.7566,61116,"(35.4973, -89.7566)",Tipton County
868,Michigan,41.9144,-85.5278,60887,"(41.9144, -85.5278)",Saint Joseph County
869,Arkansas,35.5881,-94.2428,60593,"(35.5881, -94.2428)",Crawford County
870,Vermont,43.5801,-73.0364,60585,"(43.5801, -73.0364)",Rutland County
871,Virginia,36.8213,-79.3971,60541,"(36.8213, -79.3971)",Pittsylvania County
872,New York,43.4192,-74.9624,60293,"(43.4192, -74.9624)",Herkimer County
873,Missouri,39.058,-90.96,60172,"(39.058, -90.96)",Lincoln County
874,Pennsylvania,41.7887,-76.5154,60159,"(41.7887, -76.5154)",Bradford County
875,Minnesota,46.4088,-95.708,60072,"(46.4088, -95.708)",Otter Tail County
876,Texas,32.5637,-95.8365,60053,"(32.5637, -95.8365)",Van Zandt County
877,Vermont,44.2736,-72.6148,59768,"(44.2736, -72.6148)",Washington County
878,New York,42.6338,-75.0326,59678,"(42.6338, -75.0326)",Otsego County
879,Ohio,39.4553,-81.4953,59639,"(39.4553, -81.4953)",Washington County
880,West Virginia,37.4055,-81.1114,59530,"(37.4055, -81.1114)",Mercer County
881,Nevada,39.0206,-119.189,59435,"(39.0206, -119.189)",Lyon County
882,North Carolina,34.9916,-78.3714,59317,"(34.9916, -78.3714)",Sampson County
883,Alaska,60.2654,-151.5651,59235,"(60.2654, -151.5651)",Kenai Peninsula Borough
884,Alabama,33.9809,-86.5674,59077,"(33.9809, -86.5674)",Blount County
885,Missouri,36.9055,-94.3393,59019,"(36.9055, -94.3393)",Newton County
886,Pennsylvania,41.332,-75.0338,58996,"(41.332, -75.0338)",Pike County
887,Ohio,41.3562,-83.1464,58885,"(41.3562, -83.1464)",Sandusky County
888,Alabama,32.2884,-85.1849,58849,"(32.2884, -85.1849)",Russell County
889,Ohio,39.6419,-83.0244,58809,"(39.6419, -83.0244)",Pickaway County
890,Alabama,32.5349,-86.6427,58761,"(32.5349, -86.6427)",Autauga County
891,Mississippi,33.4729,-88.4433,58547,"(33.4729, -88.4433)",Lowndes County
892,Ohio,41.1463,-82.598,58518,"(41.1463, -82.598)",Huron County
893,Utah,41.521,-113.0821,58291,"(41.521, -113.0821)",Box Elder County
894,Maine,44.4999,-70.7566,58276,"(44.4999, -70.7566)",Oxford County
895,Wisconsin,43.4666,-89.3337,58272,"(43.4666, -89.3337)",Columbia County
896,Nevada,39.1511,-119.7476,58249,"(39.1511, -119.7476)",Carson City
897,New York,43.0009,-78.1937,58204,"(43.0009, -78.1937)",Genesee County
898,Kentucky,37.4691,-82.3958,58196,"(37.4691, -82.3958)",Pike County
899,Tennessee,35.4906,-86.0748,58080,"(35.4906, -86.0748)",Coffee County
900,Texas,31.8133,-95.6525,58077,"(31.8133, -95.6525)",Anderson County
901,Utah,37.8592,-113.2895,58068,"(37.8592, -113.2895)",Iron County
902,West Virginia,39.3076,-77.8628,58043,"(39.3076, -77.8628)",Jefferson County
903,Ohio,38.5984,-82.5368,57994,"(38.5984, -82.5368)",Lawrence County
904,Vermont,43.5799,-72.5862,57832,"(43.5799, -72.5862)",Windsor County
905,Texas,28.7426,-100.3145,57806,"(28.7426, -100.3145)",Maverick County
906,Georgia,34.5032,-84.8759,57785,"(34.5032, -84.8759)",Gordon County
907,Louisiana,30.2906,-92.412,57674,"(30.2906, -92.412)",Acadia Parish
908,Texas,30.0108,-95.9876,57463,"(30.0108, -95.9876)",Waller County
909,West Virginia,38.5086,-81.909,57347,"(38.5086, -81.909)",Putnam County
910,Kentucky,38.2916,-84.5839,57286,"(38.2916, -84.5839)",Scott County
911,Alabama,34.7005,-87.8049,57270,"(34.7005, -87.8049)",Colbert County
912,Louisiana,29.8465,-92.3242,57202,"(29.8465, -92.3242)",Vermilion Parish
913,Tennessee,36.4412,-82.9447,57107,"(36.4412, -82.9447)",Hawkins County
914,Minnesota,45.5025,-92.9083,56927,"(45.5025, -92.9083)",Chisago County
915,Texas,30.3324,-94.3902,56576,"(30.3324, -94.3902)",Hardin County
916,Mississippi,30.7688,-89.5896,56351,"(30.7688, -89.5896)",Pearl River County
917,Tennessee,36.2928,-82.1275,56315,"(36.2928, -82.1275)",Carter County
918,Missouri,36.6548,-93.0411,56202,"(36.6548, -93.0411)",Taney County
919,South Carolina,35.0481,-81.6206,56200,"(35.0481, -81.6206)",Cherokee County
920,West Virginia,39.51,-80.2434,56194,"(39.51, -80.2434)",Marion County
921,Mississippi,34.3568,-89.485,56172,"(34.3568, -89.485)",Lafayette County
922,Colorado,37.2866,-107.8433,55983,"(37.2866, -107.8433)",La Plata County
923,Maine,44.6648,-68.3583,55851,"(44.6648, -68.3583)",Hancock County
924,Colorado,39.6278,-106.6953,55650,"(39.6278, -106.6953)",Eagle County
925,Illinois,41.7562,-89.9141,55569,"(41.7562, -89.9141)",Whiteside County
926,Virginia,37.2053,-79.0966,55518,"(37.2053, -79.0966)",Campbell County
927,Tennessee,35.7348,-84.3119,55507,"(35.7348, -84.3119)",Loudon County
928,Oklahoma,35.0169,-97.8841,55314,"(35.0169, -97.8841)",Grady County
929,Georgia,30.9306,-81.6699,55105,"(30.9306, -81.6699)",Camden County
930,North Carolina,35.2388,-77.6413,55071,"(35.2388, -77.6413)",Lenoir County
931,Ohio,41.1239,-83.1277,55062,"(41.1239, -83.1277)",Seneca County
932,Tennessee,36.051,-83.4463,55017,"(36.051, -83.4463)",Jefferson County
933,California,38.0276,-119.9548,54993,"(38.0276, -119.9548)",Tuolumne County
934,Virginia,36.992,-79.8811,54838,"(36.992, -79.8811)",Franklin County
935,Tennessee,36.149,-87.3567,54563,"(36.149, -87.3567)",Dickson County
936,North Carolina,36.2311,-81.6964,54540,"(36.2311, -81.6964)",Watauga County
937,Kansas,38.7838,-97.65,54160,"(38.7838, -97.65)",Saline County
938,Missouri,38.7441,-93.8064,54025,"(38.7441, -93.8064)",Johnson County
939,Virginia,36.7244,-81.9598,53985,"(36.7244, -81.9598)",Washington County
940,Tennessee,35.8479,-84.5232,53777,"(35.8479, -84.5232)",Roane County
941,Missouri,37.8246,-92.2076,53726,"(37.8246, -92.2076)",Pulaski County
942,Nevada,41.1458,-115.3577,53600,"(41.1458, -115.3577)",Elko County
943,Alabama,31.4027,-85.9882,53559,"(31.4027, -85.9882)",Coffee County
944,Tennessee,35.4248,-84.6175,53532,"(35.4248, -84.6175)",McMinn County
945,Illinois,42.3231,-88.8234,53459,"(42.3231, -88.8234)",Boone County
946,Arizona,33.7997,-110.8116,53419,"(33.7997, -110.8116)",Gila County
947,Kentucky,37.872,-84.5809,53381,"(37.872, -84.5809)",Jessamine County
948,New York,43.1138,-74.4222,53280,"(43.1138, -74.4222)",Fulton County
949,Michigan,43.4641,-83.4167,53218,"(43.4641, -83.4167)",Tuscola County
950,Illinois,37.7851,-89.3821,53176,"(37.7851, -89.3821)",Jackson County
951,Oregon,45.9438,-123.0883,52865,"(45.9438, -123.0883)",Columbia County
952,Texas,32.047,-96.4725,52834,"(32.047, -96.4725)",Navarro County
953,Maryland,38.2128,-75.334,52827,"(38.2128, -75.334)",Worcester County
954,Virginia,38.486,-77.9558,52822,"(38.486, -77.9558)",Culpeper County
955,Texas,30.0615,-99.35,52810,"(30.0615, -99.35)",Kerr County
956,Texas,32.1077,-94.7618,52755,"(32.1077, -94.7618)",Rusk County
957,Iowa,41.3343,-93.5615,52709,"(41.3343, -93.5615)",Warren County
958,Illinois,41.2851,-88.4185,52624,"(41.2851, -88.4185)",Grundy County
959,Alabama,34.7795,-85.9994,52618,"(34.7795, -85.9994)",Jackson County
960,North Carolina,35.0175,-79.2373,52612,"(35.0175, -79.2373)",Hoke County
961,Oklahoma,36.7152,-95.9044,52579,"(36.7152, -95.9044)",Washington County
962,Ohio,40.846,-82.2707,52522,"(40.846, -82.2707)",Ashland County
963,Idaho,43.7841,-111.6592,52487,"(43.7841, -111.6592)",Madison County
964,Wisconsin,44.0816,-88.2181,52361,"(44.0816, -88.2181)",Calumet County
965,Louisiana,29.9055,-90.3582,52191,"(29.9055, -90.3582)",Saint Charles Parish
966,Louisiana,30.1291,-91.6083,51856,"(30.1291, -91.6083)",Saint Martin Parish
967,Wisconsin,42.8675,-90.7062,51842,"(42.8675, -90.7062)",Grant County
968,Wisconsin,44.4705,-88.9648,51822,"(44.4705, -88.9648)",Waupaca County
969,Virginia,38.4362,-78.8735,51784,"(38.4362, -78.8735)",City of Harrisonburg
970,Ohio,40.1333,-84.6194,51751,"(40.1333, -84.6194)",Darke County
971,Nevada,38.0422,-116.4719,51698,"(38.0422, -116.4719)",Nye County
972,Illinois,42.0426,-89.3207,51672,"(42.0426, -89.3207)",Ogle County
973,Michigan,41.9154,-85.9935,51604,"(41.9154, -85.9935)",Cass County
974,Kentucky,38.2391,-84.8771,51475,"(38.2391, -84.8771)",Franklin County
975,Texas,29.3557,-99.1101,51432,"(29.3557, -99.1101)",Medina County
976,Mississippi,33.425,-88.8793,51388,"(33.425, -88.8793)",Oktibbeha County
977,Pennsylvania,41.6487,-75.3033,51227,"(41.6487, -75.3033)",Wayne County
978,North Carolina,34.2657,-78.655,50827,"(34.2657, -78.655)",Columbus County
979,Texas,31.837,-95.1652,50824,"(31.837, -95.1652)",Cherokee County
980,Virginia,36.6828,-79.874,50760,"(36.6828, -79.874)",City of Martinsville
981,Indiana,39.1452,-84.9732,50709,"(39.1452, -84.9732)",Dearborn County
982,New Hampshire,43.8738,-71.2031,50679,"(43.8738, -71.2031)",Carroll County
983,Rhode Island,41.7173,-71.284,50658,"(41.7173, -71.284)",Bristol County
984,Maine,45.5139,-69.9589,50656,"(45.5139, -69.9589)",Piscataquis County
985,Texas,30.7927,-94.83,50536,"(30.7927, -94.83)",Polk County
986,Tennessee,35.5138,-86.4589,50533,"(35.5138, -86.4589)",Bedford County
987,Pennsylvania,41.401,-79.758,50475,"(41.401, -79.758)",Venango County
988,Tennessee,35.9966,-88.9326,50455,"(35.9966, -88.9326)",Gibson County
989,Texas,29.174,-98.0866,50381,"(29.174, -98.0866)",Wilson County
990,Oregon,44.642,-123.8682,50334,"(44.642, -123.8682)",Lincoln County
991,Maryland,39.068,-76.0202,50316,"(39.068, -76.0202)",Queen Anne's County
992,Texas,33.6672,-95.5712,50149,"(33.6672, -95.5712)",Lamar County
993,Michigan,43.5542,-85.8009,50130,"(43.5542, -85.8009)",Newaygo County
994,Nebraska,40.8552,-99.075,50103,"(40.8552, -99.075)",Buffalo County
995,Vermont,44.8576,-72.9131,50101,"(44.8576, -72.9131)",Franklin County
996,Oklahoma,35.9193,-97.4433,49919,"(35.9193, -97.4433)",Logan County
997,Minnesota,43.9869,-91.7792,49792,"(43.9869, -91.7792)",Winona County
998,Illinois,40.9318,-90.2132,49751,"(40.9318, -90.2132)",Knox County
999,Texas,30.7884,-98.1823,49684,"(30.7884, -98.1823)",Burnet County
1000,New York,42.9023,-74.4397,49624,"(42.9023, -74.4397)",Montgomery County
1001,Nevada,38.9123,-119.6162,49476,"(38.9123, -119.6162)",Douglas County
1002,Alabama,31.4318,-85.611,49455,"(31.4318, -85.611)",Dale County
1003,Georgia,32.4636,-82.9222,49407,"(32.4636, -82.9222)",Laurens County
1004,Texas,28.8935,-98.5272,49403,"(28.8935, -98.5272)",Atascosa County
1005,North Carolina,34.9365,-77.933,49312,"(34.9365, -77.933)",Duplin County
1006,Illinois,41.3531,-90.1314,49157,"(41.3531, -90.1314)",Henry County
1007,Louisiana,29.7207,-91.4486,49114,"(29.7207, -91.4486)",Saint Mary Parish
1008,Colorado,38.4731,-105.4395,49107,"(38.4731, -105.4395)",Fremont County
1009,North Carolina,35.9129,-77.5971,49067,"(35.9129, -77.5971)",Edgecombe County
1010,Indiana,39.9311,-85.3964,48913,"(39.9311, -85.3964)",Henry County
1011,North Carolina,36.2574,-77.6517,48772,"(36.2574, -77.6517)",Halifax County
1012,Oklahoma,34.9003,-94.7034,48525,"(34.9003, -94.7034)",Le Flore County
1013,Louisiana,31.1083,-93.1843,48452,"(31.1083, -93.1843)",Vernon Parish
1014,New York,42.1703,-76.3063,48344,"(42.1703, -76.3063)",Tioga County
1015,New Mexico,34.5742,-103.347,48327,"(34.5742, -103.347)",Curry County
1016,Louisiana,32.6016,-92.6649,48323,"(32.6016, -92.6649)",Lincoln Parish
1017,Idaho,43.2166,-112.3981,48253,"(43.2166, -112.3981)",Bingham County
1018,Kentucky,38.3596,-82.6878,48242,"(38.3596, -82.6878)",Boyd County
1019,Oklahoma,34.2509,-97.2858,48202,"(34.2509, -97.2858)",Carter County
1020,Ohio,40.3316,-84.2048,48145,"(40.3316, -84.2048)",Shelby County
1021,Kentucky,38.2155,-85.1948,48105,"(38.2155, -85.1948)",Shelby County
1022,New York,42.2765,-74.1227,48067,"(42.2765, -74.1227)",Greene County
1023,Idaho,48.3,-116.6011,47976,"(48.3, -116.6011)",Bonner County
1024,Arkansas,35.2057,-90.3078,47945,"(35.2057, -90.3078)",Crittenden County
1025,Arizona,31.5259,-110.8465,47838,"(31.5259, -110.8465)",Santa Cruz County
1026,Florida,30.7954,-85.2155,47704,"(30.7954, -85.2155)",Jackson County
1027,Minnesota,44.4097,-92.7229,47697,"(44.4097, -92.7229)",Goodhue County
1028,Texas,29.8929,-101.1517,47693,"(29.8929, -101.1517)",Val Verde County
1029,Pennsylvania,40.0065,-78.4903,47613,"(40.0065, -78.4903)",Bedford County
1030,New York,44.5929,-74.3038,47459,"(44.5929, -74.3038)",Franklin County
1031,Indiana,41.3986,-85.4175,47431,"(41.3986, -85.4175)",Noble County
1032,Oklahoma,35.9067,-94.9997,47412,"(35.9067, -94.9997)",Cherokee County
1033,New York,42.2574,-78.0276,47222,"(42.2574, -78.0276)",Allegany County
1034,Washington,46.9012,-117.523,47141,"(46.9012, -117.523)",Whitman County
1035,New York,42.4935,-75.6116,47096,"(42.4935, -75.6116)",Chenango County
1036,Illinois,39.5203,-88.2217,47076,"(39.5203, -88.2217)",Coles County
1037,Texas,29.7384,-94.61,47037,"(29.7384, -94.61)",Chambers County
1038,Wyoming,44.2482,-105.5482,46857,"(44.2482, -105.5482)",Campbell County
1039,Kentucky,37.8052,-85.466,46779,"(37.8052, -85.466)",Nelson County
1040,Washington,48.3991,-117.8552,46774,"(48.3991, -117.8552)",Stevens County
1041,New York,42.595,-76.0703,46755,"(42.595, -76.0703)",Cortland County
1042,Wisconsin,45.4237,-91.8483,46683,"(45.4237, -91.8483)",Barron County
1043,Oklahoma,33.9623,-96.2598,46528,"(33.9623, -96.2598)",Bryan County
1044,Tennessee,35.4427,-84.2527,46489,"(35.4427, -84.2527)",Monroe County
1045,Iowa,41.898,-90.532,46488,"(41.898, -90.532)",Clinton County
1046,Georgia,34.631,-83.5311,46326,"(34.631, -83.5311)",Habersham County
1047,Virginia,38.0375,-78.4855,46289,"(38.0375, -78.4855)",City of Charlottesville
1048,Minnesota,47.9738,-94.9377,46274,"(47.9738, -94.9377)",Beltrami County
1049,Ohio,40.5609,-84.2217,46263,"(40.5609, -84.2217)",Auglaize County
1050,Indiana,38.9064,-86.0375,46212,"(38.9064, -86.0375)",Jackson County
1051,Wisconsin,43.9457,-90.6178,46208,"(43.9457, -90.6178)",Monroe County
1052,Indiana,41.3248,-86.2618,46208,"(41.3248, -86.2618)",Marshall County
1053,Pennsylvania,40.6104,-77.617,46146,"(40.6104, -77.617)",Mifflin County
1054,Texas,29.8368,-97.6199,46141,"(29.8368, -97.6199)",Caldwell County
1055,Ohio,40.3885,-83.7658,46098,"(40.3885, -83.7658)",Logan County
1056,Mississippi,30.4165,-89.489,46010,"(30.4165, -89.489)",Hancock County
1057,Oklahoma,36.6292,-96.3985,46004,"(36.6292, -96.3985)",Osage County
1058,Arkansas,36.1175,-90.5589,45954,"(36.1175, -90.5589)",Greene County
1059,Pennsylvania,40.3984,-77.2623,45941,"(40.3984, -77.2623)",Perry County
1060,Vermont,42.9906,-72.7139,45857,"(42.9906, -72.7139)",Windham County
1061,Georgia,31.1884,-83.7688,45813,"(31.1884, -83.7688)",Colquitt County
1062,Michigan,41.8878,-84.5929,45698,"(41.8878, -84.5929)",Hillsdale County
1063,California,38.2046,-120.5541,45674,"(38.2046, -120.5541)",Calaveras County
1064,Georgia,30.8637,-83.9193,45665,"(30.8637, -83.9193)",Thomas County
1065,Louisiana,30.8533,-90.0405,45514,"(30.8533, -90.0405)",Washington Parish
1066,Texas,29.9447,-98.7115,45376,"(29.9447, -98.7115)",Kendall County
1067,Texas,32.7864,-95.3821,45341,"(32.7864, -95.3821)",Wood County
1068,Kentucky,37.3088,-87.5408,45223,"(37.3088, -87.5408)",Hopkins County
1069,Wisconsin,44.9466,-91.8964,45221,"(44.9466, -91.8964)",Dunn County
1070,Alabama,32.8479,-86.7188,45140,"(32.8479, -86.7188)",Chilton County
1071,Wisconsin,45.4614,-92.4414,45128,"(45.4614, -92.4414)",Polk County
1072,Indiana,38.8412,-86.4835,45113,"(38.8412, -86.4835)",Lawrence County
1073,Minnesota,47.5095,-93.6319,45054,"(47.5095, -93.6319)",Itasca County
1074,Georgia,32.0145,-81.4436,44995,"(32.0145, -81.4436)",Bryan County
1075,Indiana,39.5237,-85.7917,44940,"(39.5237, -85.7917)",Shelby County
1076,Illinois,39.261,-89.9245,44907,"(39.261, -89.9245)",Macoupin County
1077,Montana,46.0817,-114.1207,44876,"(46.0817, -114.1207)",Ravalli County
1078,Missouri,37.8772,-91.7923,44843,"(37.8772, -91.7923)",Phelps County
1079,Michigan,41.9161,-85.059,44795,"(41.9161, -85.059)",Branch County
1080,Kentucky,37.7958,-87.5729,44770,"(37.7958, -87.5729)",Henderson County
1081,North Carolina,35.494,-76.8598,44711,"(35.494, -76.8598)",Beaufort County
1082,North Carolina,36.4019,-80.2397,44696,"(36.4019, -80.2397)",Stokes County
1083,New York,42.1981,-74.9665,44637,"(42.1981, -74.9665)",Delaware County
1084,North Carolina,35.6817,-82.0493,44629,"(35.6817, -82.0493)",McDowell County
1085,Mississippi,33.2839,-90.9474,44604,"(33.2839, -90.9474)",Washington County
1086,Missouri,38.8355,-91.926,44517,"(38.8355, -91.926)",Callaway County
1087,Kentucky,36.9656,-85.9337,44511,"(36.9656, -85.9337)",Barren County
1088,Illinois,42.3518,-89.6623,44482,"(42.3518, -89.6623)",Stephenson County
1089,Washington,47.1244,-120.6798,44424,"(47.1244, -120.6798)",Kittitas County
1090,Tennessee,35.2173,-87.3956,44377,"(35.2173, -87.3956)",Lawrence County
1091,Mississippi,32.3573,-90.852,44341,"(32.3573, -90.852)",Warren County
1092,Virginia,38.8583,-78.5708,44337,"(38.8583, -78.5708)",Shenandoah County
1093,Pennsylvania,41.1282,-78.9994,44326,"(41.1282, -78.9994)",Jefferson County
1094,Ohio,40.5612,-81.9293,44273,"(40.5612, -81.9293)",Holmes County
1095,Pennsylvania,40.4169,-77.9812,44123,"(40.4169, -77.9812)",Huntingdon County
1096,Wisconsin,46.4329,-91.9162,44092,"(46.4329, -91.9162)",Douglas County
1097,California,41.5927,-122.5404,44049,"(41.5927, -122.5404)",Siskiyou County
1098,Louisiana,29.8691,-89.5549,44038,"(29.8691, -89.5549)",Saint Bernard Parish
1099,Ohio,39.8942,-83.4005,43961,"(39.8942, -83.4005)",Madison County
1100,Florida,30.1956,-82.9915,43881,"(30.1956, -82.9915)",Suwannee County
1101,Oklahoma,36.818,-97.1439,43859,"(36.818, -97.1439)",Kay County
1102,Georgia,33.0693,-83.2495,43778,"(33.0693, -83.2495)",Baldwin County
1103,Oklahoma,34.9239,-95.7484,43758,"(34.9239, -95.7484)",Pittsburg County
1104,Florida,30.5795,-84.6136,43746,"(30.5795, -84.6136)",Gadsden County
1105,Ohio,38.9338,-83.8673,43715,"(38.9338, -83.8673)",Brown County
1106,Minnesota,45.1524,-95.0047,43686,"(45.1524, -95.0047)",Kandiyohi County
1107,Indiana,38.3643,-86.8798,43584,"(38.3643, -86.8798)",Dubois County
1108,South Carolina,34.6398,-80.1587,43536,"(34.6398, -80.1587)",Chesterfield County
1109,New Hampshire,43.3613,-72.2221,43356,"(43.3613, -72.2221)",Sullivan County
1110,Indiana,41.3976,-84.9991,43312,"(41.3976, -84.9991)",DeKalb County
1111,Ohio,39.1847,-83.601,43285,"(39.1847, -83.601)",Highland County
1112,Florida,29.3184,-82.7434,43268,"(29.3184, -82.7434)",Levy County
1113,Missouri,38.027,-92.766,43227,"(38.027, -92.766)",Camden County
1114,Washington,47.7361,-119.6918,43189,"(47.7361, -119.6918)",Douglas County
1115,North Carolina,35.0059,-79.7479,43149,"(35.0059, -79.7479)",Richmond County
1116,Oklahoma,34.4856,-97.8515,43140,"(34.4856, -97.8515)",Stephens County
1117,Missouri,38.7283,-93.2851,43059,"(38.7283, -93.2851)",Pettis County
1118,Georgia,31.5493,-82.8492,43056,"(31.5493, -82.8492)",Coffee County
1119,North Carolina,35.9291,-80.5445,43030,"(35.9291, -80.5445)",Davie County
1120,Georgia,34.0018,-85.1881,43019,"(34.0018, -85.1881)",Polk County
1121,Tennessee,35.1551,-86.0922,42980,"(35.1551, -86.0922)",Franklin County
1122,Iowa,43.0816,-93.2608,42979,"(43.0816, -93.2608)",Cerro Gordo County
1123,Iowa,41.4839,-91.1127,42968,"(41.4839, -91.1127)",Muscatine County
1124,Pennsylvania,40.963,-77.0622,42908,"(40.963, -77.0622)",Union County
1125,Colorado,38.4022,-108.2693,42823,"(38.4022, -108.2693)",Montrose County
1126,Texas,32.2363,-98.2179,42788,"(32.2363, -98.2179)",Erath County
1127,Arkansas,33.3124,-93.8921,42682,"(33.3124, -93.8921)",Bowie County
1128,Virginia,37.1865,-77.2242,42634,"(37.1865, -77.2242)",Prince George County
1129,Virginia,38.7479,-77.4838,42620,"(38.7479, -77.4838)",City of Manassas
1130,Ohio,41.6018,-84.1301,42602,"(41.6018, -84.1301)",Fulton County
1131,Utah,40.8683,-110.9557,42524,"(40.8683, -110.9557)",Summit County
1132,Virginia,36.5831,-79.4088,42507,"(36.5831, -79.4088)",City of Danville
1133,North Carolina,36.3649,-78.4079,42492,"(36.3649, -78.4079)",Vance County
1134,Oklahoma,35.0093,-97.4443,42393,"(35.0093, -97.4443)",McClain County
1135,North Carolina,35.2876,-83.1408,42388,"(35.2876, -83.1408)",Jackson County
1136,Washington,48.5488,-119.7408,42336,"(48.5488, -119.7408)",Okanogan County
1137,Ohio,40.5399,-84.6294,42321,"(40.5399, -84.6294)",Mercer County
1138,Missouri,36.7164,-90.4066,42280,"(36.7164, -90.4066)",Butler County
1139,Tennessee,35.1971,-89.4144,42228,"(35.1971, -89.4144)",Fayette County
1140,West Virginia,40.0969,-80.6189,42224,"(40.0969, -80.6189)",Ohio County
1141,Idaho,46.3268,-116.7502,42200,"(46.3268, -116.7502)",Nez Perce County
1142,Wisconsin,44.7194,-92.4224,42187,"(44.7194, -92.4224)",Pierce County
1143,Wyoming,41.6595,-108.8796,42079,"(41.6595, -108.8796)",Sweetwater County
1144,Ohio,39.4149,-83.8084,42077,"(39.4149, -83.8084)",Clinton County
1145,Louisiana,30.1264,-90.4709,41986,"(30.1264, -90.4709)",Saint John the Baptist Parish
1146,Georgia,33.835,-83.4371,41978,"(33.835, -83.4371)",Oconee County
1147,Ohio,40.8508,-82.9198,41861,"(40.8508, -82.9198)",Crawford County
1148,Texas,33.6393,-97.2126,41860,"(33.6393, -97.2126)",Cooke County
1149,Wisconsin,45.3834,-88.0337,41827,"(45.3834, -88.0337)",Marinette County
1150,Arkansas,36.2872,-92.3369,41801,"(36.2872, -92.3369)",Baxter County
1151,Texas,29.2779,-96.2221,41614,"(29.2779, -96.2221)",Wharton County
1152,Michigan,43.2927,-84.6049,41534,"(43.2927, -84.6049)",Gratiot County
1153,Minnesota,45.6991,-93.9988,41300,"(45.6991, -93.9988)",Benton County
1154,Texas,32.7363,-94.9415,41261,"(32.7363, -94.9415)",Upshur County
1155,Minnesota,45.5615,-93.2951,41257,"(45.5615, -93.2951)",Isanti County
1156,Alabama,32.8624,-85.7975,41251,"(32.8624, -85.7975)",Tallapoosa County
1157,Georgia,31.4574,-83.5266,41247,"(31.4574, -83.5266)",Tift County
1158,Oregon,45.995,-123.6557,41190,"(45.995, -123.6557)",Clatsop County
1159,Pennsylvania,41.7722,-77.2543,41186,"(41.7722, -77.2543)",Tioga County
1160,Tennessee,36.2611,-87.0868,41184,"(36.2611, -87.0868)",Cheatham County
1161,Tennessee,35.6787,-85.7785,41163,"(35.6787, -85.7785)",Warren County
1162,Ohio,39.7415,-84.648,40929,"(39.7415, -84.648)",Preble County
1163,Wisconsin,44.7892,-88.7654,40848,"(44.7892, -88.7654)",Shawano County
1164,Virginia,38.9087,-78.2085,40800,"(38.9087, -78.2085)",Warren County
1165,Oklahoma,36.4082,-94.8026,40791,"(36.4082, -94.8026)",Delaware County
1166,Michigan,43.4236,-82.8203,40759,"(43.4236, -82.8203)",Sanilac County
1167,Maine,44.141,-69.1686,40729,"(44.141, -69.1686)",Knox County
1168,California,38.4464,-120.6511,40577,"(38.4464, -120.6511)",Amador County
1169,West Virginia,38.0288,-81.0811,40545,"(38.0288, -81.0811)",Fayette County
1170,Pennsylvania,41.8076,-78.569,40459,"(41.8076, -78.569)",McKean County
1171,North Carolina,36.2955,-76.2843,40454,"(36.2955, -76.2843)",Pasquotank County
1172,Virginia,37.125,-81.5606,40392,"(37.125, -81.5606)",Tazewell County
1173,Ohio,41.5379,-83.1435,40367,"(41.5379, -83.1435)",Ottawa County
1174,Indiana,41.6426,-85.4265,40364,"(41.6426, -85.4265)",LaGrange County
1175,Arkansas,35.7624,-90.0522,40361,"(35.7624, -90.0522)",Mississippi County
1176,New York,42.7024,-78.2245,40338,"(42.7024, -78.2245)",Wyoming County
1177,New Mexico,36.5096,-106.6931,40285,"(36.5096, -106.6931)",Rio Arriba County
1178,New York,43.2521,-78.2312,40148,"(43.2521, -78.2312)",Orleans County
1179,Michigan,43.6408,-85.3246,40128,"(43.6408, -85.3246)",Mecosta County
1180,Mississippi,31.1749,-90.4042,40098,"(31.1749, -90.4042)",Pike County
1181,Minnesota,43.6715,-92.7525,40082,"(43.6715, -92.7525)",Mower County
1182,Georgia,34.7884,-84.7481,40063,"(34.7884, -84.7481)",Murray County
1183,Iowa,42.0358,-92.9988,40049,"(42.0358, -92.9988)",Marshall County
1184,Missouri,36.774,-91.8865,39960,"(36.774, -91.8865)",Howell County
1185,Florida,26.5535,-81.1659,39902,"(26.5535, -81.1659)",Hendry County
1186,Idaho,46.8162,-116.7117,39872,"(46.8162, -116.7117)",Latah County
1187,Florida,27.3864,-80.8886,39870,"(27.3864, -80.8886)",Okeechobee County
1188,Pennsylvania,40.7698,-77.0702,39797,"(40.7698, -77.0702)",Snyder County
1189,Maine,44.5028,-69.1454,39772,"(44.5028, -69.1454)",Waldo County
1190,Indiana,38.1951,-86.1114,39684,"(38.1951, -86.1114)",Harrison County
1191,Oklahoma,35.4953,-94.7552,39538,"(35.4953, -94.7552)",Sequoyah County
1192,Louisiana,31.0763,-92.0014,39529,"(31.0763, -92.0014)",Avoyelles Parish
1193,Wyoming,43.0405,-108.6304,39402,"(43.0405, -108.6304)",Fremont County
1194,Tennessee,36.4035,-84.1494,39397,"(36.4035, -84.1494)",Campbell County
1195,Oklahoma,36.3019,-95.2307,39324,"(36.3019, -95.2307)",Mayes County
1196,Missouri,37.2809,-92.8759,39265,"(37.2809, -92.8759)",Webster County
1197,North Carolina,36.39,-78.9718,39131,"(36.39, -78.9718)",Person County
1198,Minnesota,45.9338,-95.4535,39081,"(45.9338, -95.4535)",Douglas County
1199,North Dakota,48.3437,-103.4802,39076,"(48.3437, -103.4802)",Williams County
1200,Texas,27.7314,-98.0899,39060,"(27.7314, -98.0899)",Jim Wells County
1201,Wisconsin,45.0264,-88.2697,39048,"(45.0264, -88.2697)",Oconto County
1202,Kansas,37.5073,-94.8518,39012,"(37.5073, -94.8518)",Crawford County
1203,West Virginia,38.1459,-82.427,38933,"(38.1459, -82.427)",Wayne County
1204,Virginia,36.8912,-76.7259,38898,"(36.8912, -76.7259)",Isle of Wight County
1205,Virginia,37.416,-76.5434,38875,"(37.416, -76.5434)",Gloucester County
1206,Iowa,40.9232,-91.1815,38824,"(40.9232, -91.1815)",Des Moines County
1207,Arkansas,33.1713,-92.5972,38815,"(33.1713, -92.5972)",Union County
1208,Ohio,40.1377,-83.7696,38715,"(40.1377, -83.7696)",Champaign County
1209,South Carolina,32.8637,-80.667,38561,"(32.8637, -80.667)",Colleton County
1210,Pennsylvania,41.8214,-75.8007,38540,"(41.8214, -75.8007)",Susquehanna County
1211,Pennsylvania,41.8145,-79.2741,38492,"(41.8145, -79.2741)",Warren County
1212,Arizona,32.9326,-109.8875,38453,"(32.9326, -109.8875)",Graham County
1213,Illinois,40.7883,-89.2113,38414,"(40.7883, -89.2113)",Woodford County
1214,Ohio,40.052,-81.4943,38409,"(40.052, -81.4943)",Guernsey County
1215,Alabama,32.326,-87.1065,38326,"(32.326, -87.1065)",Dallas County
1216,Ohio,41.3239,-84.4905,38300,"(41.3239, -84.4905)",Defiance County
1217,South Dakota,45.5898,-98.3516,38278,"(45.5898, -98.3516)",Brown County
1218,Missouri,37.1064,-93.833,38231,"(37.1064, -93.833)",Lawrence County
1219,Kansas,38.0443,-100.737,38187,"(38.0443, -100.737)",Finney County
1220,Texas,31.7742,-98.9998,38159,"(31.7742, -98.9998)",Brown County
1221,Oklahoma,34.728,-96.6844,38116,"(34.728, -96.6844)",Pontotoc County
1222,Virginia,37.9786,-77.963,38106,"(37.9786, -77.963)",Louisa County
1223,Missouri,37.053,-89.5686,38055,"(37.053, -89.5686)",Scott County
1224,Indiana,40.0404,-86.8933,38018,"(40.0404, -86.8933)",Montgomery County
1225,South Carolina,34.2898,-81.6001,37918,"(34.2898, -81.6001)",Newberry County
1226,Arkansas,35.7416,-91.5697,37910,"(35.7416, -91.5697)",Independence County
1227,Pennsylvania,41.234,-77.6385,37860,"(41.234, -77.6385)",Clinton County
1228,Indiana,40.7615,-86.346,37820,"(40.7615, -86.346)",Cass County
1229,Illinois,37.9923,-88.9242,37810,"(37.9923, -88.9242)",Franklin County
1230,Iowa,41.686,-93.0538,37808,"(41.686, -93.0538)",Jasper County
1231,Wisconsin,45.7056,-89.5218,37799,"(45.7056, -89.5218)",Oneida County
1232,Maryland,38.7714,-76.0971,37663,"(38.7714, -76.0971)",Talbot County
1233,Arkansas,36.3086,-93.0915,37662,"(36.3086, -93.0915)",Boone County
1234,Illinois,38.6496,-88.919,37543,"(38.6496, -88.919)",Marion County
1235,Alabama,31.2485,-86.4513,37542,"(31.2485, -86.4513)",Covington County
1236,Wyoming,41.6545,-105.7238,37525,"(41.6545, -105.7238)",Albany County
1237,Pennsylvania,41.1924,-79.421,37489,"(41.1924, -79.421)",Clarion County
1238,Louisiana,31.7234,-93.0962,37478,"(31.7234, -93.0962)",Natchitoches Parish
1239,Vermont,44.0309,-73.1408,37434,"(44.0309, -73.1408)",Addison County
1240,Michigan,46.8976,-88.6875,37414,"(46.8976, -88.6875)",Baraga County
1241,Minnesota,44.0223,-93.2261,37396,"(44.0223, -93.2261)",Steele County
1242,Kentucky,36.621,-88.2723,37345,"(36.621, -88.2723)",Calloway County
1243,Vermont,43.0354,-73.0932,37326,"(43.0354, -73.0932)",Bennington County
1244,New York,44.1172,-73.7726,37314,"(44.1172, -73.7726)",Essex County
1245,North Carolina,36.1605,-80.6652,37280,"(36.1605, -80.6652)",Yadkin County
1246,Nebraska,41.5779,-96.654,37175,"(41.5779, -96.654)",Dodge County
1247,North Carolina,35.7824,-75.7988,37160,"(35.7824, -75.7988)",Dare County
1248,North Carolina,35.1505,-83.4222,37088,"(35.1505, -83.4222)",Macon County
1249,Wisconsin,42.68,-89.6022,37066,"(42.68, -89.6022)",Green County
1250,Illinois,38.3005,-88.924,37043,"(38.3005, -88.924)",Jefferson County
1251,Texas,33.1496,-95.564,37008,"(33.1496, -95.564)",Hopkins County
1252,Illinois,38.6065,-89.4225,36998,"(38.6065, -89.4225)",Clinton County
1253,Iowa,42.4279,-94.1818,36986,"(42.4279, -94.1818)",Webster County
1254,Ohio,41.5603,-84.5882,36973,"(41.5603, -84.5882)",Williams County
1255,Indiana,39.6663,-86.845,36942,"(39.6663, -86.845)",Putnam County
1256,Oklahoma,35.6466,-95.9643,36900,"(35.6466, -95.9643)",Okmulgee County
1257,Kentucky,37.9708,-84.1474,36897,"(37.9708, -84.1474)",Clark County
1258,Maine,43.9598,-69.8546,36868,"(43.9598, -69.8546)",Sagadahoc County
1259,Michigan,45.9193,-86.9241,36839,"(45.9193, -86.9241)",Delta County
1260,Tennessee,36.0592,-89.4136,36818,"(36.0592, -89.4136)",Dyer County
1261,Louisiana,32.7135,-93.335,36761,"(32.7135, -93.335)",Webster Parish
1262,Alabama,31.1261,-87.1616,36755,"(31.1261, -87.1616)",Escambia County
1263,Minnesota,44.8236,-94.2724,36727,"(44.8236, -94.2724)",McLeod County
1264,Kentucky,36.7231,-88.6512,36701,"(36.7231, -88.6512)",Graves County
1265,Indiana,40.8292,-85.4881,36699,"(40.8292, -85.4881)",Huntington County
1266,Michigan,46.3053,-84.578,36670,"(46.3053, -84.578)",Chippewa County
1267,Kentucky,36.7581,-84.1452,36648,"(36.7581, -84.1452)",Whitley County
1268,Ohio,40.3017,-81.9201,36629,"(40.3017, -81.9201)",Coshocton County
1269,Virginia,38.2461,-78.014,36593,"(38.2461, -78.014)",Orange County
1270,Louisiana,30.6486,-93.3432,36553,"(30.6486, -93.3432)",Beauregard Parish
1271,North Carolina,35.921,-81.177,36505,"(35.921, -81.177)",Alexander County
1272,Minnesota,46.5924,-92.677,36362,"(46.5924, -92.677)",Carlton County
1273,Texas,28.8212,-96.011,36251,"(28.8212, -96.011)",Matagorda County
1274,Kansas,39.0024,-96.7525,36247,"(39.0024, -96.7525)",Geary County
1275,Tennessee,35.9254,-83.1212,36186,"(35.9254, -83.1212)",Cocke County
1276,Indiana,38.6891,-87.418,36148,"(38.6891, -87.418)",Knox County
1277,Texas,31.9907,-97.1324,36138,"(31.9907, -97.1324)",Hill County
1278,Virginia,36.9752,-82.6212,36105,"(36.9752, -82.6212)",City of Norton
1279,Missouri,37.6583,-92.5903,36060,"(37.6583, -92.5903)",Laclede County
1280,Texas,33.5938,-96.1069,36052,"(33.5938, -96.1069)",Fannin County
1281,Nebraska,41.8506,-103.708,36048,"(41.8506, -103.708)",Scotts Bluff County
1282,Indiana,40.7695,-86.045,35952,"(40.7695, -86.045)",Miami County
1283,Utah,40.1248,-109.5186,35951,"(40.1248, -109.5186)",Uintah County
1284,Georgia,31.0538,-82.4237,35917,"(31.0538, -82.4237)",Ware County
1285,Kentucky,38.5457,-82.9223,35853,"(38.5457, -82.9223)",Greenup County
1286,Indiana,40.7457,-84.9366,35827,"(40.7457, -84.9366)",Adams County
1287,Iowa,43.0826,-96.1779,35815,"(43.0826, -96.1779)",Sioux County
1288,Texas,30.2145,-96.4034,35807,"(30.2145, -96.4034)",Washington County
1289,Pennsylvania,39.8538,-80.2229,35781,"(39.8538, -80.2229)",Greene County
1290,Kentucky,37.5571,-82.7457,35780,"(37.5571, -82.7457)",Floyd County
1291,Illinois,40.8916,-88.5577,35771,"(40.8916, -88.5577)",Livingston County
1292,Missouri,38.7646,-91.1607,35729,"(38.7646, -91.1607)",Warren County
1293,Nebraska,41.9167,-97.6008,35538,"(41.9167, -97.6008)",Madison County
1294,Maine,44.0665,-69.5434,35466,"(44.0665, -69.5434)",Lincoln County
1295,Ohio,39.7372,-82.2361,35451,"(39.7372, -82.2361)",Perry County
1296,Tennessee,35.1405,-86.589,35365,"(35.1405, -86.589)",Lincoln County
1297,Montana,45.9024,-112.6567,35306,"(45.9024, -112.6567)",Silver Bow County
1298,Iowa,41.0306,-92.4095,35292,"(41.0306, -92.4095)",Wapello County
1299,Minnesota,46.9346,-95.674,35202,"(46.9346, -95.674)",Becker County
1300,Ohio,40.5241,-82.7941,35049,"(40.5241, -82.7941)",Morrow County
1301,Utah,40.3308,-111.1682,35009,"(40.3308, -111.1682)",Summit County
1302,Georgia,32.736,-84.9089,34914,"(32.736, -84.9089)",Harris County
1303,Illinois,38.2785,-90.1773,34905,"(38.2785, -90.1773)",Monroe County
1304,Mississippi,31.5324,-90.454,34855,"(31.5324, -90.454)",Lincoln County
1305,Mississippi,34.8808,-88.5803,34717,"(34.8808, -88.5803)",Alcorn County
1306,Wisconsin,44.7347,-90.6121,34703,"(44.7347, -90.6121)",Clark County
1307,Missouri,36.7099,-93.8291,34701,"(36.7099, -93.8291)",Barry County
1308,Kansas,37.2377,-96.8375,34661,"(37.2377, -96.8375)",Cowley County
1309,South Dakota,44.3697,-96.7905,34631,"(44.3697, -96.7905)",Brookings County
1310,Alabama,32.9143,-85.392,34612,"(32.9143, -85.392)",Chambers County
1311,Illinois,39.0598,-88.5899,34594,"(39.0598, -88.5899)",Effingham County
1312,Tennessee,35.4689,-86.765,34567,"(35.4689, -86.765)",Marshall County
1313,Nebraska,41.0477,-100.7453,34532,"(41.0477, -100.7453)",Lincoln County
1314,Indiana,41.6439,-85.0009,34507,"(41.6439, -85.0009)",Steuben County
1315,Texas,32.3062,-101.4356,34488,"(32.3062, -101.4356)",Howard County
1316,New Mexico,36.5783,-105.631,34475,"(36.5783, -105.631)",Taos County
1317,Ohio,41.0221,-84.1317,34400,"(41.0221, -84.1317)",Putnam County
1318,Minnesota,44.3499,-94.2475,34380,"(44.3499, -94.2475)",Nicollet County
1319,Kansas,38.5635,-94.8381,34312,"(38.5635, -94.8381)",Miami County
1320,Indiana,41.1394,-85.5051,34259,"(41.1394, -85.5051)",Whitley County
1321,Florida,27.1864,-81.8095,34258,"(27.1864, -81.8095)",DeSoto County
1322,North Carolina,34.8409,-79.4804,34222,"(34.8409, -79.4804)",Scotland County
1323,Illinois,41.7461,-89.3003,34221,"(41.7461, -89.3003)",Lee County
1324,Nebraska,41.5713,-97.5211,34219,"(41.5713, -97.5211)",Platte County
1325,Kansas,37.6917,-99.888,34212,"(37.6917, -99.888)",Ford County
1326,West Virginia,39.4693,-79.6682,34206,"(39.4693, -79.6682)",Preston County
1327,Mississippi,33.8923,-88.4805,34168,"(33.8923, -88.4805)",Monroe County
1328,Michigan,45.5202,-84.8904,34072,"(45.5202, -84.8904)",Emmet County
1329,Minnesota,46.0126,-94.2684,34023,"(46.0126, -94.2684)",Morrison County
1330,Virginia,36.7669,-78.9366,34013,"(36.7669, -78.9366)",Halifax County
1331,Mississippi,34.7623,-89.5031,33980,"(34.7623, -89.5031)",Marshall County
1332,Kansas,38.0432,-97.4272,33959,"(38.0432, -97.4272)",Harvey County
1333,Illinois,39.5458,-89.2773,33893,"(39.5458, -89.2773)",Christian County
1334,Virginia,37.0636,-80.7144,33841,"(37.0636, -80.7144)",Pulaski County
1335,Michigan,44.3383,-85.5785,33766,"(44.3383, -85.5785)",Wexford County
1336,Virginia,37.5571,-79.8124,33734,"(37.5571, -79.8124)",Botetourt County
1337,Oklahoma,35.703,-96.8809,33734,"(35.703, -96.8809)",Lincoln County
1338,Florida,30.1673,-84.4007,33732,"(30.1673, -84.4007)",Wakulla County
1339,Illinois,40.4728,-90.2075,33691,"(40.4728, -90.2075)",Fulton County
1340,New York,42.781,-76.8238,33651,"(42.781, -76.8238)",Seneca County
1341,Iowa,41.3344,-93.0994,33487,"(41.3344, -93.0994)",Marion County
1342,Iowa,40.642,-91.4793,33442,"(40.642, -91.4793)",Hancock County
1343,Georgia,34.4643,-84.4656,33439,"(34.4643, -84.4656)",Pickens County
1344,Georgia,34.5722,-84.0027,33405,"(34.5722, -84.0027)",Lumpkin County
1345,Virginia,37.7644,-75.6334,33367,"(37.7644, -75.6334)",Accomack County
1346,Indiana,38.7024,-87.072,33337,"(38.7024, -87.072)",Daviess County
1347,Maryland,38.8717,-75.8316,33320,"(38.8717, -75.8316)",Caroline County
1348,Virginia,37.2043,-77.3913,33261,"(37.2043, -77.3913)",City of Petersburg
1349,Illinois,41.4041,-89.5287,33203,"(41.4041, -89.5287)",Bureau County
